[{"name":"Peter-A.-Silbermann-Schule","id":"BE-15586","address":"Blissestr. 22, 10713 Berlin","website":"http://www.abendgymnasium.de","email":"info@abendgymnasium.de","school_type":"Abend-Gymnasium","legal_status":1,"fax":"8974516-9","phone":"8974516-0","director":"Fr. Grüner","location":{"lat":"52.4844921","lon":"13.3194555"}},{"name":"Katholische Schule Sankt Ludwig (Grundschule)","id":"BE-15587","address":"Düsseldorfer Str. 13, 10719 Berlin","website":"http://ludwig-gs.de","email":"kontakt@ludwig-gs.de","school_type":"Grundschule","legal_status":1,"fax":"8824868","phone":"8824867","director":"Fr. Fuchs","location":{"lat":"52.4959147","lon":"13.3212219"}},{"name":"Michael-Tschechow-Studio Berlin","id":"BE-15588","address":", undefined Berlin","email":"","school_type":"Künstlerische Schule","legal_status":1,"fax":"","phone":"","director":""},{"name":"gebaerdenservive.de","id":"BE-15589","address":"Stresemannstr. 46, 10963 Berlin","website":"http://gebaerdenservice.de","email":"costrau@gebaerdenservice.de","school_type":"Sonstige Ergänzungsschule","legal_status":1,"fax":"67926822","phone":"67926821","director":"Hr. Costrau","location":{"lat":"52.501577","lon":"13.3864568"}},{"name":"Evangelisches Gymnasium zum Grauen Kloster","id":"BE-15590","address":"Salzbrunner Str. 41, 14193 Berlin","website":"http://www.graues-kloster.de","email":"sekretariat@graues-kloster.de","school_type":"Gymnasien","legal_status":1,"fax":"82540-12","phone":"82540-11","director":"Fr. von Hammerstein","location":{"lat":"52.48519175","lon":"13.2930615857989"}},{"name":"Nord-Grundschule","id":"BE-15591","address":"Potsdamer Str. 7, 14163 Berlin","website":"http://www.nord-g.cidsnet.de","email":"info@nord-g.cidsnet.de","school_type":"Grundschule","legal_status":1,"fax":"902996151","phone":"902995468","director":"Fr. Leisner","location":{"lat":"52.43664605","lon":"13.2562114295674"}},{"name":"Süd-Grundschule","id":"BE-15592","address":"Claszeile 56, 14165 Berlin","website":"http://www.sued-grundschule.de","email":"info@sued-grundschule.de","school_type":"Grundschule","legal_status":1,"fax":"8152630","phone":"84509638","director":"Hr. Peters","location":{"lat":"52.4192374","lon":"13.257763"}},{"name":"Mühlenau-Grundschule","id":"BE-15593","address":"Molsheimer Str. 7, 14195 Berlin","website":"http://www.m%c3%bchlenau.com","email":"Muehlenau.cids@t-online.de","school_type":"Grundschule","legal_status":1,"fax":"8329622","phone":"8325099","director":"Hr. Herz","location":{"lat":"52.44357235","lon":"13.276325260087"}},{"name":"Zinnowwald-Grundschule","id":"BE-15594","address":"Wilskistr. 78, 14163 Berlin","website":"http://www.zinnowwald.cidsnet.de","email":"Sekretariat@zinnowwaldschule.de","school_type":"Grundschule","legal_status":1,"fax":"902996152","phone":"902995586","director":"Fr. Mojem","location":{"lat":"52.44462265","lon":"13.2471315492302"}},{"name":"Dreilinden-Grundschule","id":"BE-15595","address":"Dreilindenstr. 65, 14109 Berlin","website":"http://www.dreilinden-grundschule.de","email":"sekretariat@dreilinden-grundschule.de","school_type":"Grundschule","legal_status":1,"fax":"8039224","phone":"8038009","director":"Fr. Ullrich","location":{"lat":"52.4203994","lon":"13.1866726268335"}},{"name":"Grundschule am Buschgraben","id":"BE-15596","address":"Ludwigsfelder Str. 43-47, 14165 Berlin","website":"http://www.grundschuleambuschgraben.de","email":"kontakt@grundschuleambuschgraben.de","school_type":"Grundschule","legal_status":1,"fax":"8021653","phone":"8025018","director":"Fr. Philipp-Wald","location":{"lat":"52.4225891","lon":"13.2439514"}},{"name":"Kreativitätsschulzentrum Berlin gGmbH","id":"BE-15597","address":"Strausberger Str. 38, 10243 Berlin","website":"http://www.krea-schulzentrum.de","email":"schule-fh@krea-schulzentrum.de","school_type":"Grundschule","legal_status":1,"fax":"29039449","phone":"29035117","director":"Fr. Schwarz, Hr. Grenz","location":{"lat":"52.52098195","lon":"13.432863501484"}},{"name":"Gail-S.-Halvorsen-Integrierte Sekundarschule","id":"BE-15598","address":"Im Gehege 6, 14195 Berlin","website":"http://www.halvorsen-schule.de","email":"sekretariat@halvorsen-schule.de","school_type":"Integrierte Sekundarschule","legal_status":1,"fax":"8314055","phone":"84108184","director":"Fr. Röschel","location":{"lat":"52.4595594","lon":"13.28459665117"}},{"name":"Schadow-Gymnasium","id":"BE-15599","address":"Beuckestr. 27-29, 14163 Berlin","website":"http://www.schadow-gymnasium.de","email":"schadow-oberschule@gmx.net","school_type":"Gymnasien","legal_status":1,"fax":"90299-6158","phone":"90299-5463","director":"Hr. Krenz","location":{"lat":"52.43105235","lon":"13.2537363447655"}},{"name":"Droste-Hülshoff-Gymnasium","id":"BE-15600","address":"Schönower Str. 8, 14165 Berlin","website":"http://www.droste-gymnasium-berlin.de","email":"sekretariat@droste-gymnasium-berlin.de","school_type":"Gymnasien","legal_status":1,"fax":"84508468","phone":"84508466","director":"Fr. Dr. Wittkowski","location":{"lat":"52.4284066","lon":"13.2577455614937"}},{"name":"Arndt-Gymnasium Dahlem","id":"BE-15601","address":"Königin-Luise-Str. 80-84, 14195 Berlin","website":"http://www.arndt-gymnasium.de","email":"sekretariat@arndt-gymnasium.de","school_type":"Gymnasien","legal_status":1,"fax":"8311002","phone":"8315052","director":"Fr. Dr. Stäbe-Wegemund","location":{"lat":"52.4587645","lon":"13.2797897560462"}},{"name":"Comenius-Schule","id":"BE-15602","address":"Gieselerstr. 4, 10713 Berlin","website":"http://www.schule-comenius.de","email":"comenius-schulleitung@t-online.de","school_type":"Übrige Förderschwerpunkte","legal_status":1,"fax":"86499518","phone":"8649950","director":"Hr. Sörensen","location":{"lat":"52.48858295","lon":"13.3187622708306"}},{"name":"Comenius-Schule","id":"BE-15603","address":"Gieselerstr. 4, 10713 Berlin","website":"http://www.schule-comenius.de","email":"comenius-schulleitung@t-online.de","school_type":"Förderschwerp.\"Lernen\"","legal_status":1,"fax":"86499518","phone":"8649950","director":"Hr. Sörensen","location":{"lat":"52.48858295","lon":"13.3187622708306"}},{"name":"Comenius-Schule","id":"BE-15604","address":"Gieselerstr. 4, 10713 Berlin","website":"http://www.schule-comenius.de","email":"comenius-schulleitung@t-online.de","school_type":"Berufsschule mit sonderpäd. Aufgaben","legal_status":1,"fax":"86499518","phone":"8649950","director":"Hr. Sörensen","location":{"lat":"52.48858295","lon":"13.3187622708306"}},{"name":"Comenius-Schule","id":"BE-15605","address":"Gieselerstr. 4, 10713 Berlin","website":"http://www.schule-comenius.de","email":"comenius-schulleitung@t-online.de","school_type":"Grundschule","legal_status":1,"fax":"86499518","phone":"8649950","director":"Hr. Sörensen","location":{"lat":"52.48858295","lon":"13.3187622708306"}},{"name":"Freie Schule am Elsengrund (Integrierte Sekundarschule)","id":"BE-15606","address":"Elsenstr. 13 A, 12623 Berlin","website":"http://freie-schule-am-elsengrund.de","email":"info@elsengrund.de","school_type":"Integrierte Sekundarschule","legal_status":1,"fax":"9789107-8","phone":"9789107-7","director":"Fr. Hackbusch","location":{"lat":"52.5005704","lon":"13.6109219"}},{"name":"Leopold-Ullstein-Schule (OSZ Wirtschaft)","id":"BE-15607","address":"Prinzregentenstr. 32, 10715 Berlin","website":"http://www.leopold-ullstein-schule.de","email":"info@leopold-ullstein-schule.de","school_type":"Fachoberschule","legal_status":1,"fax":"85758550","phone":"85758532","director":"Fr. Kirchner","location":{"lat":"52.4836923","lon":"13.3326880800968"}},{"name":"Leopold-Ullstein-Schule (OSZ Wirtschaft)","id":"BE-15608","address":"Prinzregentenstr. 32, 10715 Berlin","website":"http://www.leopold-ullstein-schule.de","email":"info@leopold-ullstein-schule.de","school_type":"Berufsschule","legal_status":1,"fax":"85758550","phone":"85758532","director":"Fr. Kirchner","location":{"lat":"52.4836923","lon":"13.3326880800968"}},{"name":"Leopold-Ullstein-Schule (OSZ Wirtschaft)","id":"BE-15609","address":"Prinzregentenstr. 32, 10715 Berlin","website":"http://www.leopold-ullstein-schule.de","email":"info@leopold-ullstein-schule.de","school_type":"Berufsfachschule","legal_status":1,"fax":"85758550","phone":"85758532","director":"Fr. Kirchner","location":{"lat":"52.4836923","lon":"13.3326880800968"}},{"name":"OSZ Körperpflege","id":"BE-15610","address":"Schillerstr. 121, 10625 Berlin","website":"http://www.osz-koerperpflege.de","email":"info@osz-koerperpflege.de","school_type":"Berufsfachschule","legal_status":1,"fax":"864970-51","phone":"864970-0","director":"Fr. Haase","location":{"lat":"52.5106297","lon":"13.3205435"}},{"name":"OSZ Körperpflege","id":"BE-15611","address":"Schillerstr. 121, 10625 Berlin","website":"http://www.osz-koerperpflege.de","email":"info@osz-koerperpflege.de","school_type":"Berufsschule","legal_status":1,"fax":"864970-51","phone":"864970-0","director":"Fr. Haase","location":{"lat":"52.5106297","lon":"13.3205435"}},{"name":"OSZ Körperpflege","id":"BE-15612","address":"Schillerstr. 121, 10625 Berlin","website":"http://www.osz-koerperpflege.de","email":"info@osz-koerperpflege.de","school_type":"Fachoberschule","legal_status":1,"fax":"864970-51","phone":"864970-0","director":"Fr. Haase","location":{"lat":"52.5106297","lon":"13.3205435"}},{"name":"2. Schulpraktisches Seminar Charlottenburg-Wilmersdorf","id":"BE-15613","address":"Kastanienallee 13, 14050 Berlin","email":"nelkner1u2spssek@t-online.de","school_type":"Schulpraktisches Seminar","legal_status":1,"fax":"9029280-78","phone":"9029280-77","director":"Fr. Dr. Stein-Kramer","location":{"lat":"52.5133987","lon":"13.2695763"}},{"name":"3. Schulpraktisches Seminar Charlottenburg-Wilmersdorf","id":"BE-15614","address":"Kastanienallee 13, 14050 Berlin","email":"fichte-brinkmann3_4sps@t-online.de","school_type":"Schulpraktisches Seminar","legal_status":1,"fax":"9029280-79","phone":"9029280-70","director":"Fr. Junge","location":{"lat":"52.5133987","lon":"13.2695763"}},{"name":"Johannes-Tews-Grundschule","id":"BE-15615","address":"Wasgenstr. 50, 14129 Berlin","website":"http://www.johannes-tews-grundschule.de","email":"jtg.berlin-sekretariat@t-online.de","school_type":"Grundschule","legal_status":1,"fax":"80491348","phone":"8032072","director":"N.N.","location":{"lat":"52.4318115","lon":"13.2127024827552"}},{"name":"Dreilinden-Gymnasium","id":"BE-15616","address":"Dreilindenstr. 49, 14109 Berlin","website":"http://www.dreilinden-gymnasium.de","email":"sekretariat@dreilinden-gymnasium.de","school_type":"Gymnasien","legal_status":1,"fax":"80404350","phone":"8031087","director":"Hr. Stiller","location":{"lat":"52.42025695","lon":"13.1878739240127"}},{"name":"Werner-von-Siemens-Gymnasium","id":"BE-15617","address":"Beskidenstr. 3, 14129 Berlin","website":"http://www.siemens-gymnasium-berlin.de","email":"\tleitung@siemens-gymnasium-berlin.de","school_type":"Gymnasien","legal_status":1,"fax":"80404585","phone":"8039066","director":"Fr. Paubandt","location":{"lat":"52.431841","lon":"13.211682754851"}},{"name":"John-F.-Kennedy-Schule","id":"BE-15618","address":"Teltower Damm 87-93, 14167 Berlin","website":"http://www.jfks.de","email":"office@jfksberlin.org","school_type":"Integrierte Sekundarschule","legal_status":1,"fax":"90299-6377","phone":"90299-5779","director":"Hr. Roth","location":{"lat":"52.42537965","lon":"13.2635015781201"}},{"name":"Wilma-Rudolph-Schule (Integrierte Sekundarschule)","id":"BE-15619","address":"Am Hegewinkel 2 A, 14169 Berlin","website":"http://www.wilma-rudolph.de","email":"buero@wilma-rudolph.de","school_type":"Integrierte Sekundarschule","legal_status":1,"fax":"902996-766","phone":"902996-464","director":"Fr. Kottrup","location":{"lat":"52.4542203","lon":"13.2604916"}},{"name":"Pestalozzi-Schule","id":"BE-15620","address":"Hartmannsweilerweg 47, 14163 Berlin","website":"http://www.pestalozzi-schule-berlin.de","email":"epost@pestalozzi-schule-berlin.de","school_type":"Förderschwerp.\"Geistige Entwicklung\"","legal_status":1,"fax":"902996167","phone":"902995760","director":"Fr. Wedekind","location":{"lat":"52.44348155","lon":"13.248309188635"}},{"name":"Pestalozzi-Schule","id":"BE-15621","address":"Hartmannsweilerweg 47, 14163 Berlin","website":"http://www.pestalozzi-schule-berlin.de","email":"epost@pestalozzi-schule-berlin.de","school_type":"Förderschwerp.\"Lernen\"","legal_status":1,"fax":"902996167","phone":"902995760","director":"Fr. Wedekind","location":{"lat":"52.44348155","lon":"13.248309188635"}},{"name":"Pestalozzi-Schule","id":"BE-15622","address":"Hartmannsweilerweg 47, 14163 Berlin","website":"http://www.pestalozzi-schule-berlin.de","email":"epost@pestalozzi-schule-berlin.de","school_type":"Grundschule","legal_status":1,"fax":"902996167","phone":"902995760","director":"Fr. Wedekind","location":{"lat":"52.44348155","lon":"13.248309188635"}},{"name":"Pestalozzi-Schule","id":"BE-15623","address":"Hartmannsweilerweg 47, 14163 Berlin","website":"http://www.pestalozzi-schule-berlin.de","email":"epost@pestalozzi-schule-berlin.de","school_type":"Integrierte Sekundarschule","legal_status":1,"fax":"902996167","phone":"902995760","director":"Fr. Wedekind","location":{"lat":"52.44348155","lon":"13.248309188635"}},{"name":"Biesalski-Schule","id":"BE-15624","address":"Hüttenweg 40, 14195 Berlin","website":"http://www.biesalski-schule.de","email":"buero@biesalski-schule.de","school_type":"Berufsschule mit sonderpäd. Aufgaben","legal_status":1,"fax":"90299-8020","phone":"90299-6474","director":"Fr. Kurandt-Ruhnau dos Santos","location":{"lat":"52.4545683","lon":"13.2706708"}},{"name":"Biesalski-Schule","id":"BE-15625","address":"Hüttenweg 40, 14195 Berlin","website":"http://www.biesalski-schule.de","email":"buero@biesalski-schule.de","school_type":"Übrige Förderschwerpunkte","legal_status":1,"fax":"90299-8020","phone":"90299-6474","director":"Fr. Kurandt-Ruhnau dos Santos","location":{"lat":"52.4545683","lon":"13.2706708"}},{"name":"Heinrich-Hertz-Oberschule","id":"BE-15626","address":"Rigaer Str. 81-82, 10247 Berlin","website":"http://www.heinrich-hertz-schule.de","email":"Sek@H.Hertz-OS.Schule-Berlin-FK.de","school_type":"Gymnasien","legal_status":1,"fax":"422620884","phone":"42262080","director":"Fr. Cohaus","location":{"lat":"52.5172039","lon":"13.4629528912195"}},{"name":"Peter-Lenné-Schule (OSZ Natur und Umwelt)","id":"BE-15627","address":"Hartmannsweilerweg 29, 14163 Berlin","website":"http://www.peter-lenne-schule.de","email":"info@peter-lenne-schule.de","school_type":"Fachschule","legal_status":1,"fax":"81490-180","phone":"81490-112","director":"Hr. Alker","location":{"lat":"52.441952","lon":"13.2488833"}},{"name":"Peter-Lenné-Schule (OSZ Natur und Umwelt)","id":"BE-15628","address":"Hartmannsweilerweg 29, 14163 Berlin","website":"http://www.peter-lenne-schule.de","email":"info@peter-lenne-schule.de","school_type":"Berufsschule","legal_status":1,"fax":"81490-180","phone":"81490-112","director":"Hr. Alker","location":{"lat":"52.441952","lon":"13.2488833"}},{"name":"Peter-Lenné-Schule (OSZ Natur und Umwelt)","id":"BE-15629","address":"Hartmannsweilerweg 29, 14163 Berlin","website":"http://www.peter-lenne-schule.de","email":"info@peter-lenne-schule.de","school_type":"Fachoberschule","legal_status":1,"fax":"81490-180","phone":"81490-112","director":"Hr. Alker","location":{"lat":"52.441952","lon":"13.2488833"}},{"name":"Peter-Lenné-Schule (OSZ Natur und Umwelt)","id":"BE-15630","address":"Hartmannsweilerweg 29, 14163 Berlin","website":"http://www.peter-lenne-schule.de","email":"info@peter-lenne-schule.de","school_type":"Berufsfachschule","legal_status":1,"fax":"81490-180","phone":"81490-112","director":"Hr. Alker","location":{"lat":"52.441952","lon":"13.2488833"}},{"name":"Peter-Lenné-Schule (OSZ Natur und Umwelt)","id":"BE-15631","address":"Hartmannsweilerweg 29, 14163 Berlin","website":"http://www.peter-lenne-schule.de","email":"info@peter-lenne-schule.de","school_type":"Berufsoberschule","legal_status":1,"fax":"81490-180","phone":"81490-112","director":"Hr. Alker","location":{"lat":"52.441952","lon":"13.2488833"}},{"name":"Volkshochschule Steglitz-Zehlendorf","id":"BE-15632","address":"Goethestr. 9-11, 12207 Berlin","website":"http://www.zbw-berlin.de","email":"zbw-sekretariat@t-online.de","school_type":"Volkshochschule","legal_status":1,"fax":"90299-2599","phone":"\t90299-2208","director":"Hr. Laser-Tannhäuser","location":{"lat":"52.4285501","lon":"13.3154344"}},{"name":"Rudolf-Steiner-Schule Berlin","id":"BE-15633","address":"Auf dem Grat 3, 14195 Berlin","website":"http://dahlem.waldorf.net","email":"info@dahlem.waldorf.net","school_type":"Freie Waldorfschule","legal_status":1,"fax":"83009155","phone":"8300910","director":"Fr. Heim-Taubert","location":{"lat":"52.45700335","lon":"13.2747624881334"}},{"name":"Emil-Molt-Schule","id":"BE-15634","address":"Claszeile 60, 14165 Berlin","website":"http://www.emil-molt-schule.de","email":"info@emil-molt-schule.de","school_type":"Freie Waldorfschule","legal_status":1,"fax":"845706-12","phone":"845706-0","director":"Fr. Schmidt","location":{"lat":"52.4179909","lon":"13.2584477"}},{"name":"Königin-Luise-Stiftung","id":"BE-15635","address":"Podbielskiallee 78, 14195 Berlin","website":"http://www.koenigin-luise-stiftung.de","email":"","school_type":"Integrierte Sekundarschule","legal_status":1,"fax":"841814-81","phone":"841814-25","director":"Hr. Theesfeld, Hr. Schönleber, Hr. Kaiser","location":{"lat":"52.460507","lon":"13.3025313637913"}},{"name":"Königin-Luise-Stiftung","id":"BE-15636","address":"Podbielskiallee 78, 14195 Berlin","website":"http://www.koenigin-luise-stiftung.de","email":"","school_type":"Gymnasien","legal_status":1,"fax":"841814-81","phone":"841814-25","director":"Hr. Theesfeld, Hr. Schönleber, Hr. Kaiser","location":{"lat":"52.460507","lon":"13.3025313637913"}},{"name":"Königin-Luise-Stiftung","id":"BE-15637","address":"Podbielskiallee 78, 14195 Berlin","website":"http://www.koenigin-luise-stiftung.de","email":"","school_type":"Grundschule","legal_status":1,"fax":"841814-81","phone":"841814-25","director":"Hr. Theesfeld, Hr. Schönleber, Hr. Kaiser","location":{"lat":"52.460507","lon":"13.3025313637913"}},{"name":"Parzival-Schule","id":"BE-15638","address":"Quermatenweg 6, 14163 Berlin","website":"http://wwww.parzival-schule-berlin.de","email":"info@parzival-schule-berlin.de","school_type":"Förderschwerp.\"Geistige Entwicklung\"","legal_status":1,"fax":"81819710","phone":"8181970","director":"Hr. Herre","location":{"lat":"52.4467163","lon":"13.2340117190859"}},{"name":"Berlin Cosmopolitan School","id":"BE-15639","address":"Rückerstr. 9, 10119 Berlin","website":"http://www.cosmopolitanschool.de","email":"office@cosmopolitanschool.de","school_type":"Gymnasien","legal_status":1,"fax":"6883323-23","phone":"6883323-24","director":"Fr. Wende","location":{"lat":"52.5277176","lon":"13.4066607"}},{"name":"Berlin Cosmopolitan School","id":"BE-15640","address":"Rückerstr. 9, 10119 Berlin","website":"http://www.cosmopolitanschool.de","email":"office@cosmopolitanschool.de","school_type":"Grundschule","legal_status":1,"fax":"6883323-23","phone":"6883323-24","director":"Fr. Wende","location":{"lat":"52.5277176","lon":"13.4066607"}},{"name":"INAC Theaterakademie","id":"BE-15641","address":"Pestalozzistr. 5-8, 13187 Berlin","website":"http://www.inac-berlin.de","email":"info@inac-berlin.de","school_type":"Künstlerische Schule","legal_status":1,"fax":"41719267","phone":"41719262","director":"Hr. Poppe","location":{"lat":"52.5722625","lon":"13.4045445"}},{"name":"Fläming-Grundschule","id":"BE-15642","address":"Illstr. 4-6, 12161 Berlin","website":"http://www.flaeming-grundschule.de","email":"flaeming@schulen-tempelhof-schoeneberg.de","school_type":"Grundschule","legal_status":1,"fax":"902774336","phone":"902777061","director":"komm. Fr. Wendt","location":{"lat":"52.4686518","lon":"13.3327546"}},{"name":"Stechlinsee-Grundschule","id":"BE-15643","address":"Rheingaustr. 7, 12161 Berlin","website":"http://www.stechlinsee-grundschule.de/","email":"Stechlinsee-Grundschule.Cids@t-online.de","school_type":"Grundschule","legal_status":1,"fax":"902774569","phone":"902777908","director":"Hr. Jeske","location":{"lat":"52.4695294","lon":"13.3224002"}},{"name":"AIK Schulen gGmbH","id":"BE-15644","address":"Hallerstr. 3-6, 10587 Berlin","website":"http://www.semperschulen.de","email":"info@semperschulen.de","school_type":"Fachschule","legal_status":1,"fax":"936936-77","phone":"936936-71","director":"Fr. Geisthardt, Fr. Bär","location":{"lat":"52.5223528","lon":"13.3237366"}},{"name":"AIK Schulen gGmbH","id":"BE-15645","address":"Hallerstr. 3-6, 10587 Berlin","website":"http://www.semperschulen.de","email":"info@semperschulen.de","school_type":"Berufsfachschule","legal_status":1,"fax":"936936-77","phone":"936936-71","director":"Fr. Geisthardt, Fr. Bär","location":{"lat":"52.5223528","lon":"13.3237366"}},{"name":"DEKRA Medienakademie","id":"BE-15646","address":"Ehrenbergstr. 11-14, 10245 Berlin","website":"http://www.dekra-akademie.de/de/dekra-medien-akademie","email":"info-medienakademie@dekra.com","school_type":"Sonstige Ergänzungsschule","legal_status":1,"fax":"290080201","phone":"290080200","director":"Hr. Rohde","location":{"lat":"52.5039458","lon":"13.4524893"}},{"name":"Berlinek Sprachenzentrum","id":"BE-15647","address":"Dahlmannstr. 1 A, 10629 Berlin","website":"http://www.berlinek.de","email":"post@berlinek.de","school_type":"Sprachenschule","legal_status":1,"fax":"34787-535","phone":"34787-266","director":"Fr. Dr. Weise","location":{"lat":"52.5019937","lon":"13.3038734"}},{"name":"Grundschule am Barbarossaplatz","id":"BE-15648","address":"Barbarossaplatz 5, 10781 Berlin","website":"http://www.gs-barbarossaplatz.de","email":"Barbarossaplatz@schulen-Tempelhof-Schoeneberg.de","school_type":"Grundschule","legal_status":1,"fax":"902777-947","phone":"902777-109","director":"Fr. Sebold","location":{"lat":"52.4922983","lon":"13.3498081"}},{"name":"Private Goethe-Schulen","id":"BE-15649","address":"Wittenauer Str. 114 , 13435 Berlin","website":"http://goethe-grundschule.bifiz.de/","email":"sekretariatgoetheschulenberlin@gmail.com","school_type":"Grundschule","legal_status":1,"fax":"40395426","phone":"40399849","director":"Fr. Berger","location":{"lat":"52.6029646","lon":"13.3321238"}},{"name":"Private Goethe-Schulen","id":"BE-15650","address":"Wittenauer Str. 114 , 13435 Berlin","website":"http://goethe-grundschule.bifiz.de/","email":"sekretariatgoetheschulenberlin@gmail.com","school_type":"Gymnasien","legal_status":1,"fax":"40395426","phone":"40399849","director":"Fr. Berger","location":{"lat":"52.6029646","lon":"13.3321238"}},{"name":"Gustav-Langenscheidt-Schule","id":"BE-15651","address":", undefined Berlin","email":"","school_type":"Integrierte Sekundarschule","legal_status":1,"fax":"","phone":"","director":""},{"name":"Friedrich-Bergius-Schule","id":"BE-15652","address":"Perelsplatz 6-9, 12159 Berlin","website":"http://www.Friedrich-Bergius-Schule.de","email":"Sekretariat@fbs-schule.de","school_type":"Integrierte Sekundarschule","legal_status":1,"fax":"902777-839","phone":"902777-910","director":"Hr. Rudolph","location":{"lat":"52.4753885","lon":"13.3346518"}},{"name":"Techn. Jugendfreizeit-u. Bildungsgesellschaft gGmbH","id":"BE-15653","address":"Wilhelmstr. 52, 10117 Berlin","website":"http://www.tjfbg.de","email":"fachschule@tjfbg.de","school_type":"Fachschule","legal_status":1,"fax":"979913-22","phone":"979913-171","director":"Hr. Dr. Hage","location":{"lat":"52.513125","lon":"13.3828085"}},{"name":"Georg-von-Giesche-Schule","id":"BE-15654","address":"Hohenstaufenstr. 47-48, 10779 Berlin","website":"http://www.georg-von-giesche-schule.de","email":"schulleitung@georg-von-giesche-schule.de","school_type":"Integrierte Sekundarschule","legal_status":1,"fax":"902778956","phone":"902777169","director":"Fr. Dudek","location":{"lat":"52.4944836","lon":"13.3426854"}},{"name":"Robert-Blum-Gymnasium","id":"BE-15655","address":"Kolonnenstr. 21, 10829 Berlin","website":"http://www.robert-blum-schule.de","email":"sekretariat@robert-blum-schule.de","school_type":"Gymnasien","legal_status":1,"fax":"902777-823","phone":"902777-172","director":"Hr. Fiehn","location":{"lat":"52.4844845","lon":"13.3648090016932"}},{"name":"Rückert-Gymnasium","id":"BE-15656","address":"Mettestr. 8, 10825 Berlin","website":"http://www.rueckert-gymnasium.berlin","email":"schulleitung@rueckert-gymnasium-berlin.de","school_type":"Gymnasien","legal_status":1,"fax":"902774351","phone":"902777173","director":"Hr. Dr. Balke","location":{"lat":"52.4803608","lon":"13.3390601"}},{"name":"Rheingau-Gymnasium","id":"BE-15657","address":"Schwalbacher Str. 3-4, 12161 Berlin","website":"http://www.rheingau-gymnasium.de","email":"sekretariat@rheingau-gymnasium.de","school_type":"Gymnasien","legal_status":1,"fax":"902774365","phone":"902777920","director":"Hr. Minske","location":{"lat":"52.4704173","lon":"13.3201371"}},{"name":"Marianne-Cohn-Schule","id":"BE-15658","address":"Holzmannstr. 7, 12099 Berlin","website":"http://www.marianne-cohn.cidsnet.de","email":"Marianne-Cohn-Schule-Berlin@t-online.de","school_type":"Förderschwerp.\"Geistige Entwicklung\"","legal_status":1,"fax":"902772558","phone":"902772555","director":"Fr. Beuting","location":{"lat":"52.4642313","lon":"13.4182235"}},{"name":"OSZ Lotis (Logistik, Touristik und Steuern)","id":"BE-15659","address":"Dudenstr. 35-37, 10965 Berlin","website":"http://www.osz-lotis.de","email":"Leitung@osz-lotis.de","school_type":"Berufliches Gymnasium","legal_status":1,"fax":"786045-15","phone":"786045-11","director":"Fr. Jaspers","location":{"lat":"52.48468115","lon":"13.3801160158388"}},{"name":"OSZ Lotis (Logistik, Touristik und Steuern)","id":"BE-15660","address":"Dudenstr. 35-37, 10965 Berlin","website":"http://www.osz-lotis.de","email":"Leitung@osz-lotis.de","school_type":"Berufsschule","legal_status":1,"fax":"786045-15","phone":"786045-11","director":"Fr. Jaspers","location":{"lat":"52.48468115","lon":"13.3801160158388"}},{"name":"OSZ Lotis (Logistik, Touristik und Steuern)","id":"BE-15661","address":"Dudenstr. 35-37, 10965 Berlin","website":"http://www.osz-lotis.de","email":"Leitung@osz-lotis.de","school_type":"Berufsfachschule","legal_status":1,"fax":"786045-15","phone":"786045-11","director":"Fr. Jaspers","location":{"lat":"52.48468115","lon":"13.3801160158388"}},{"name":"OSZ Lotis (Logistik, Touristik und Steuern)","id":"BE-15662","address":"Dudenstr. 35-37, 10965 Berlin","website":"http://www.osz-lotis.de","email":"Leitung@osz-lotis.de","school_type":"Fachoberschule","legal_status":1,"fax":"786045-15","phone":"786045-11","director":"Fr. Jaspers","location":{"lat":"52.48468115","lon":"13.3801160158388"}},{"name":"OSZ Lotis (Logistik, Touristik und Steuern)","id":"BE-15663","address":"Dudenstr. 35-37, 10965 Berlin","website":"http://www.osz-lotis.de","email":"Leitung@osz-lotis.de","school_type":"Berufsoberschule","legal_status":1,"fax":"786045-15","phone":"786045-11","director":"Fr. Jaspers","location":{"lat":"52.48468115","lon":"13.3801160158388"}},{"name":"Freie Integrative Montessori Grundschule Pankow","id":"BE-15664","address":"Hadlichstr. 2, 13187 Berlin","website":"http://www.montessori-p%c3%a4dagogik-pankow.de","email":"montessori-schule-pankow@karuna-ev.de","school_type":"Grundschule","legal_status":1,"fax":"500191929","phone":"50019130","director":"Fr. Just","location":{"lat":"52.5681606","lon":"13.4133807843603"}},{"name":"Sachsenwald-Grundschule","id":"BE-15665","address":"Sachsenwaldstr. 20-21, 12157 Berlin","website":"http://www.sachsenwald-grundschule.de","email":"buero@sachsenwald.cidsnet.de","school_type":"Grundschule","legal_status":1,"fax":"797429-19","phone":"797429-10","director":"Fr. Weyand","location":{"lat":"52.4628291","lon":"13.3391615"}},{"name":"Dunant-Grundschule","id":"BE-15666","address":"Gritznerstr. 19-23, 12163 Berlin","website":"http://www.dunant-grundschule.cidsnet.de","email":"sekr@dunant-grundschule.de","school_type":"Grundschule","legal_status":1,"fax":"79742170","phone":"79742160","director":"Hr. Dr. Urbatzka","location":{"lat":"52.4628751","lon":"13.3151017"}},{"name":"Rothenburg-Grundschule","id":"BE-15667","address":"Rothenburgstr. 18, 12165 Berlin","website":"http://www.rothenburg-grundschule.de","email":"schulleitung@rothenburg-grundschule.de","school_type":"Grundschule","legal_status":1,"fax":"902992367","phone":"902992314","director":"Fr. Ohlendorf","location":{"lat":"52.4542089","lon":"13.3127353728133"}},{"name":"Grundschule am Insulaner","id":"BE-15668","address":"Hanstedter Weg 11-15, 12169 Berlin","website":"http://www.grundschule-am-insulaner.de","email":"GSaInsulaner.cids@t-online.de","school_type":"Grundschule","legal_status":1,"fax":"797428638","phone":"79742860","director":"Fr. Khalatbari","location":{"lat":"52.451461","lon":"13.348851"}},{"name":"Alt-Lankwitzer Grundschule","id":"BE-15669","address":"Schulstr. 17-21, 12247 Berlin","website":"http://www.alt-lankwitzer-grundschule.de","email":"buero.@a-l-gs.de","school_type":"Grundschule","legal_status":1,"fax":"766879-18","phone":"766879-0","director":"Fr. Efinger","location":{"lat":"52.437095","lon":"13.35192526539"}},{"name":"Paul-Schneider-Grundschule","id":"BE-15670","address":"Seydlitzstr. 30-34, 12249 Berlin","website":"http://www.paul-schneider-grundschule.de","email":"Sekretariat@paul-schneider-grundschule.de","school_type":"Grundschule","legal_status":1,"fax":"93953413","phone":"93951511","director":"Fr. Burkuhl","location":{"lat":"52.430835","lon":"13.3410823923123"}},{"name":"Herman-Nohl-Schule (Grundschule)","id":"BE-15671","address":"Hannemannstr. 69, 12347 Berlin","website":"http://www.HNS.cidsnet.de","email":"sekretariat@nohl-schule.de","school_type":"Grundschule","legal_status":1,"fax":"62008-344","phone":"62008-330","director":"stellv. Hr. Ziegfeld","location":{"lat":"52.4541666","lon":"13.4392363"}},{"name":"Giesensdorfer Grundschule","id":"BE-15672","address":"Ostpreußendamm 63, 12207 Berlin","website":"http://www.giesensdorfer-grundschule.de","email":"sekretariat@giesensdorfer-grundschule.de","school_type":"Grundschule","legal_status":1,"fax":"71097532","phone":"71097530","director":"Fr. Kiesner","location":{"lat":"52.4221406","lon":"13.3110079219361"}},{"name":"Kronach-Grundschule","id":"BE-15673","address":"Moltkestr. 24-26, 12203 Berlin","website":"http://www.kronach-grundschule.de","email":"Kontakt@Kronach-Grundschule.de","school_type":"Grundschule","legal_status":1,"fax":"844167-71","phone":"844167-60","director":"Hr. Nink","location":{"lat":"52.4413095","lon":"13.3123349685171"}},{"name":"Grundschule unter den Kastanien","id":"BE-15674","address":", undefined Berlin","email":"","school_type":"Grundschule","legal_status":1,"fax":"","phone":"","director":""},{"name":"Clemens-Brentano-Grundschule","id":"BE-15675","address":"Kommandantenstr. 83-84, 12205 Berlin","website":"http://www.c-brentano-grundschule.de","email":"schulleitung-brentano@versanet.de","school_type":"Grundschule","legal_status":1,"fax":"84416470","phone":"84416460","director":"komm. Fr. Sommerlatte","location":{"lat":"52.4336532","lon":"13.2935666291556"}},{"name":"Käthe-Kruse-Grundschule","id":"BE-15676","address":"Tietzenweg 108, 12203 Berlin","website":"http://www.kaethe-kruse.cidsnet.de","email":"Kaethe-Kruse-Grundschule@t-online.de","school_type":"Grundschule","legal_status":1,"fax":"84416958","phone":"84416950","director":"Fr. Pape","location":{"lat":"52.43794335","lon":"13.3099556447788"}},{"name":"Grundschule am Königsgraben","id":"BE-15677","address":"Gallwitzallee 136-144, 12249 Berlin","website":"http://www.koenigsgraben.cidsnet.de","email":"koenigsgraben@t-online.de","school_type":"Grundschule","legal_status":1,"fax":"77206599","phone":"77206590","director":"Fr. Lehmisch-Rambo","location":{"lat":"52.4228234","lon":"13.3465258308692"}},{"name":"3. Schulpraktisches Seminar Tempelhof-Schöneberg","id":"BE-15678","address":"Lutherstr. 18, 12305 Berlin","email":"sekretariat.sps.temp-scho@gmx.de","school_type":"Schulpraktisches Seminar","legal_status":1,"fax":"705507-819","phone":"705507-811","director":"Fr. Dix","location":{"lat":"52.3968181","lon":"13.4044217"}},{"name":"Freie Schule in Berlin (Grundschule)","id":"BE-15679","address":"Viktoriastr. 13, 12105 Berlin","website":"http://www.freie-schule-in-berlin.cidsnet.de","email":"freieSchuleinBerlin@t-online.de","school_type":"Grundschule","legal_status":1,"fax":"","phone":"7520771","director":"Fr. Keyenburg","location":{"lat":"52.4548176","lon":"13.3817131"}},{"name":"Gymnasium Steglitz","id":"BE-15680","address":", undefined Berlin","email":"","school_type":"Gymnasien","legal_status":1,"fax":"","phone":"","director":""},{"name":"Kopernikus-Schule (Integrierte Sekundarschule)","id":"BE-15681","address":"Lepsiusstr. 24-28, 12163 Berlin","website":"%09http://www.kopernikus-oberschule.de","email":"buero.lepsiusstr@kopernikus-oberschule.de","school_type":"Integrierte Sekundarschule","legal_status":1,"fax":"797442-89","phone":"797442-60","director":"N.N.","location":{"lat":"52.4641863","lon":"13.319564731689"}},{"name":"Bröndby-Schule (Integrierte Sekundarschule)","id":"BE-15682","address":"Dessauerstr. 63, 12249 Berlin","website":"%09http://www.broendby.de","email":"post@broendby.de","school_type":"Integrierte Sekundarschule","legal_status":1,"fax":"90299-2393","phone":"90299-2010","director":"Hr. Dr. Bauer","location":{"lat":"52.42801135","lon":"13.3459707273443"}},{"name":"Peter-Frankenfeld-Schule","id":"BE-15683","address":"Wedellstr. 26, 12247 Berlin","website":"http://www.peter-frankenfeld-schule.de","email":"info@peter-frankenfeld-schule.de","school_type":"Förderschwerp.\"Geistige Entwicklung\"","legal_status":1,"fax":"77206589","phone":"77206560","director":"Hr. Lach","location":{"lat":"52.4349638","lon":"13.3548366332341"}},{"name":"J.-A.-Zeune-Schule für Blinde und Berufsfachschule Dr. Silex","id":"BE-15684","address":"Rothenburgstr. 14, 12165 Berlin","website":"http://www.blindenschule-berlin.de","email":"","school_type":"Berufsfachschule","legal_status":1,"fax":"902992013","phone":"902992390","director":"Hr. Schumacher","location":{"lat":"52.45580155","lon":"13.3150827625096"}},{"name":"J.-A.-Zeune-Schule für Blinde und Berufsfachschule Dr. Silex","id":"BE-15685","address":"Rothenburgstr. 14, 12165 Berlin","website":"http://www.blindenschule-berlin.de","email":"","school_type":"Übrige Förderschwerpunkte","legal_status":1,"fax":"902992013","phone":"902992390","director":"Hr. Schumacher","location":{"lat":"52.45580155","lon":"13.3150827625096"}},{"name":"J.-A.-Zeune-Schule für Blinde und Berufsfachschule Dr. Silex","id":"BE-15686","address":"Rothenburgstr. 14, 12165 Berlin","website":"http://www.blindenschule-berlin.de","email":"","school_type":"Berufsschule mit sonderpäd. Aufgaben","legal_status":1,"fax":"902992013","phone":"902992390","director":"Hr. Schumacher","location":{"lat":"52.45580155","lon":"13.3150827625096"}},{"name":"Louise-Schroeder-Schule (OSZ Bürowirtschaft und Verwaltung)","id":"BE-15687","address":"Lippstädter Str. 9-11, 12207 Berlin","website":"http://www.oszbueroverw.de","email":"info@oszbueroverw.de","school_type":"Berufliches Gymnasium","legal_status":1,"fax":"90172-509","phone":"90172-501","director":"Hr. Buß","location":{"lat":"52.4114779","lon":"13.3039343"}},{"name":"Louise-Schroeder-Schule (OSZ Bürowirtschaft und Verwaltung)","id":"BE-15688","address":"Lippstädter Str. 9-11, 12207 Berlin","website":"http://www.oszbueroverw.de","email":"info@oszbueroverw.de","school_type":"Berufsschule","legal_status":1,"fax":"90172-509","phone":"90172-501","director":"Hr. Buß","location":{"lat":"52.4114779","lon":"13.3039343"}},{"name":"Louise-Schroeder-Schule (OSZ Bürowirtschaft und Verwaltung)","id":"BE-15689","address":"Lippstädter Str. 9-11, 12207 Berlin","website":"http://www.oszbueroverw.de","email":"info@oszbueroverw.de","school_type":"Berufsfachschule","legal_status":1,"fax":"90172-509","phone":"90172-501","director":"Hr. Buß","location":{"lat":"52.4114779","lon":"13.3039343"}},{"name":"Louise-Schroeder-Schule (OSZ Bürowirtschaft und Verwaltung)","id":"BE-15690","address":"Lippstädter Str. 9-11, 12207 Berlin","website":"http://www.oszbueroverw.de","email":"info@oszbueroverw.de","school_type":"Fachoberschule","legal_status":1,"fax":"90172-509","phone":"90172-501","director":"Hr. Buß","location":{"lat":"52.4114779","lon":"13.3039343"}},{"name":"Louise-Schroeder-Schule (OSZ Bürowirtschaft und Verwaltung)","id":"BE-15691","address":"Lippstädter Str. 9-11, 12207 Berlin","website":"http://www.oszbueroverw.de","email":"info@oszbueroverw.de","school_type":"Berufsoberschule","legal_status":1,"fax":"90172-509","phone":"90172-501","director":"Hr. Buß","location":{"lat":"52.4114779","lon":"13.3039343"}},{"name":"2. Schulpraktisches Seminar Steglitz-Zehlendorf","id":"BE-15692","address":"Gallwitzallee 116, 12249 Berlin","email":"sps2-steglitz@t-online.de","school_type":"Schulpraktisches Seminar","legal_status":1,"fax":"772095-27","phone":"772095-24","director":"Fr. Rietzschel","location":{"lat":"52.4246363","lon":"13.3474941"}},{"name":"Private Kant-Schule (Grundschule)","id":"BE-15693","address":"Grunewaldstr. 44, 12165 Berlin","website":"http://www.private-kant-schule.de","email":"info@kant-grundschule.de","school_type":"Grundschule","legal_status":1,"fax":"79000349","phone":"820070900","director":"Hr. Gaul","location":{"lat":"52.4590012","lon":"13.3134730657996"}},{"name":"Evangelische Schule Steglitz (Integrierte Sekundarschule)","id":"BE-15694","address":"Beymestr. 6-7, 12167 Berlin","website":"http://www.evangelischeschulesteglitz.de","email":"info@ev-schule-steglitz.de","school_type":"Integrierte Sekundarschule","legal_status":1,"fax":"7916021","phone":"7916001","director":"Fr. Kettner","location":{"lat":"52.4500973","lon":"13.3311360991952"}},{"name":"Paul-Simmel-Grundschule","id":"BE-15695","address":"Felixstr. 26-58, 12099 Berlin","website":"http://www.paul-simmel-grundschule.de","email":"sekretariat@simmel.schulen-ts.de","school_type":"Grundschule","legal_status":1,"fax":"9027726-80","phone":"9027726-60","director":"Hr. Dr. Albrecht","location":{"lat":"52.4618401","lon":"13.3926376169108"}},{"name":"Tempelherren-Grundschule","id":"BE-15696","address":"Boelckestr. 58-60, 12101 Berlin","website":"http://www.tempelherren.cidsnet.de","email":"Tempelherren@schulen-Tempelhof-Schoeneberg.de","school_type":"Grundschule","legal_status":1,"fax":"902772616","phone":"902772665","director":"Hr. Dieckmann","location":{"lat":"52.4781863","lon":"13.3759221"}},{"name":"Käthe-Kollwitz-Grundschule","id":"BE-15697","address":"Mellener Str. 38-42, 12307 Berlin","website":"http://www.kkgs-berlin.de","email":"kaethe-kollwitz-grundschule@t-online.de","school_type":"Grundschule","legal_status":1,"fax":"9027782-42","phone":"9027782-41","director":"Hr. Noffz","location":{"lat":"52.3860383","lon":"13.4047372868452"}},{"name":"GFS Steuer- und Wirtschaftsfachschule GmbH","id":"BE-15698","address":"Ansbacher Str. 16, 10787 Berlin","website":"http://www.gfs.eu","email":"wifa@gfs.eu","school_type":"Wirtschafts- u. Verwaltungsschule","legal_status":1,"fax":"2115686","phone":"23634949","director":"Hr. Karst","location":{"lat":"52.5033017","lon":"13.3424828"}},{"name":"Hugo-Gaudig-Schule","id":"BE-15699","address":"Boelckestr. 58-60, 12101 Berlin","website":"http://www.hugo-gaudig-schule.de","email":"hans.pleier@hugo-gaudig-schule.de","school_type":"Integrierte Sekundarschule","legal_status":1,"fax":"902772239","phone":"902772666","director":"Hr. Pleier","location":{"lat":"52.4781863","lon":"13.3759221"}},{"name":"Johanna-Eck-Schule (Integrierte Sekundarschule)","id":"BE-15700","address":"Ringstr. 103-106, 12105 Berlin","website":"http://www.johanna-eck-schule.de","email":"sekretariat@johanna-eck-schule.de","school_type":"Integrierte Sekundarschule","legal_status":1,"fax":"902772681","phone":"902772676","director":"Fr. Özhan-Erhardt","location":{"lat":"52.44719105","lon":"13.3648595300351"}},{"name":"Theodor-Haubach-Schule","id":"BE-15701","address":"Grimmstr. 9-11, 12305 Berlin","website":"http://www.ths-berlin.de","email":"sekretariat@ths-berlin.de","school_type":"Integrierte Sekundarschule","legal_status":1,"fax":"9027782-39","phone":"9027782-45","director":"Hr. Gehrke","location":{"lat":"52.3984955","lon":"13.4060648"}},{"name":"Solling-Schule","id":"BE-15702","address":", undefined Berlin","email":"","school_type":"Integrierte Sekundarschule","legal_status":1,"fax":"","phone":"","director":""},{"name":"Luise-Henriette-Gymnasium","id":"BE-15703","address":"Germaniastr. 4-6, 12099 Berlin","website":"http://www.luise-henriette-berlin.de","email":"sekretariat@l-h-g.de","school_type":"Gymnasien","legal_status":1,"fax":"90277-2737","phone":"90277-2678","director":"Fr. Fischer","location":{"lat":"52.4653334","lon":"13.3909064"}},{"name":"Schule am Pegasuseck (Grundschule)","id":"BE-15704","address":", undefined Berlin","email":"","school_type":"Grundschule","legal_status":1,"fax":"","phone":"","director":""},{"name":"Pflegeschule am Brandenburger Tor","id":"BE-15705","address":"Wilhelmstr. 88, 10117 Berlin","email":"pflegedienst@01019freenet.de","school_type":"Sonstige Ergänzungsschule","legal_status":1,"fax":"224899-67","phone":"224899-65","director":"Fr. Livchits","location":{"lat":"52.5130753","lon":"13.3817536"}},{"name":"Akademie Berlin Schmöckwitz","id":"BE-15706","address":"Wernsdorfer Str. 43, 12527 Berlin","website":"http://www.akademie-schmoeckwitz.de","email":"info@akademie-schmoeckwitz.de","school_type":"Wirtschafts- u. Verwaltungsschule","legal_status":1,"fax":"67503220","phone":"675030","director":"Fr. Domröse","location":{"lat":"52.3729031","lon":"13.6962182215317"}},{"name":"Grundschule im Hofgarten","id":"BE-15707","address":", undefined Berlin","email":"","school_type":"Grundschule","legal_status":1,"fax":"","phone":"","director":""},{"name":"Elisabethstift-Schule (Grundschule)","id":"BE-15708","address":"Falkentaler Steig 10, 13467 Berlin","website":"http://www.elisabethstift-schule.de","email":"michael.winter@elisabethstift-berlin.de","school_type":"Grundschule","legal_status":1,"fax":"6883438-71","phone":"6883438-70","director":"Hr. Winter","location":{"lat":"52.6203644","lon":"13.3029509"}},{"name":"Otto-Wels-Grundschule","id":"BE-15709","address":"Alexandrinenstr. 12, 10969 Berlin","website":"http://www.owg-berlin.de","email":"buero@owg-berlin.de","school_type":"Grundschule","legal_status":1,"fax":"505853-15","phone":"505853-11","director":"komm. Fr. Focke","location":{"lat":"52.5002104","lon":"13.4022996518389"}},{"name":"3. Schulpraktisches Seminar Friedrichshain-Kreuzberg (unbesetzt)","id":"BE-15710","address":"Forster Str. 15, 10999 Berlin","email":"","school_type":"Schulpraktisches Seminar","legal_status":1,"fax":"","phone":"","director":"N.N.","location":{"lat":"52.4942966","lon":"13.431788294889"}},{"name":"Grundschule am Teutoburger Platz","id":"BE-15711","address":", undefined Berlin","email":"","school_type":"Grundschule","legal_status":1,"fax":"","phone":"","director":""},{"name":"Neumark-Grundschule","id":"BE-15712","address":"Steinmetzstr. 46-50, 10783 Berlin","email":"sekretariat@neumark.schulen-ts.de","school_type":"Grundschule","legal_status":1,"fax":"902774570","phone":"902777163","director":"komm. Fr. Bähnemann","location":{"lat":"52.4930713","lon":"13.3626651"}},{"name":"Kurt-Schumacher-Grundschule","id":"BE-15713","address":"Puttkamerstr. 19, 10969 Berlin","website":"http://www.kurt-schumacher-grundschule.de","email":"ksg@kurt-schumacher-gs.cidsnet.de","school_type":"Grundschule","legal_status":1,"fax":"50585915","phone":"50585931","director":"Hr. Geburtig","location":{"lat":"52.50493965","lon":"13.3885261798742"}},{"name":"Charlotte-Salomon-Grundschule","id":"BE-15714","address":"Großbeerenstr. 40, 10965 Berlin","website":"http://www.charlotte-salomon-grundschule.de","email":"buero@salomon.cidsnet.de","school_type":"Grundschule","legal_status":1,"fax":"505875-15","phone":"505875-11","director":"Fr. Baurycza","location":{"lat":"52.4907636","lon":"13.3818369595629"}},{"name":"Galilei-Grundschule","id":"BE-15715","address":"Friedrichstr. 13, 10969 Berlin","website":"http://www.galilei-grundschule.de","email":"sekretariat@galilei-grundschule.de","school_type":"Grundschule","legal_status":1,"fax":"50585815","phone":"50585811","director":"Fr. Andrè","location":{"lat":"52.5016304","lon":"13.3920311"}},{"name":"Fritz-Karsen-Schule (Gemeinschaftsschule)","id":"BE-15716","address":"Onkel-Bräsig-Str. 76-78, 12359 Berlin","website":"http://www.fritz-karsen.de","email":"sekretariat@fritz-karsen.de","school_type":"Integrierte Sekundarschule","legal_status":1,"fax":"609001-15","phone":"609001-0","director":"Fr. Graßmann","location":{"lat":"52.4483905","lon":"13.4448793"}},{"name":"Walter-Gropius-Schule (Gemeinschaftsschule)","id":"BE-15717","address":"Fritz-Erler-Allee 86, 12351 Berlin","website":"http://www.walter-gropius-schule-berlin.de","email":"Gemeinschaftsschule@walter-gropius-schule-berlin.de","school_type":"Integrierte Sekundarschule","legal_status":1,"fax":"600908-38","phone":"600908-0","director":"Hr. Miebs","location":{"lat":"52.4293403","lon":"13.463461"}},{"name":"Hermann-von-Helmholtz-Schule","id":"BE-15718","address":"Wutzkyallee 68, 12353 Berlin","website":"http://www.hvhschule.de","email":"\tinfo@hvhschule.de","school_type":"Integrierte Sekundarschule","legal_status":1,"fax":"60971738","phone":"6097170","director":"Hr. Hägler","location":{"lat":"52.4225787","lon":"13.4719886339333"}},{"name":"Otto-Hahn-Schule","id":"BE-15719","address":"Buschkrugallee 63, 12359 Berlin","website":"http://www.oho-berlin.de","email":"sekretariat@oho-berlin.de","school_type":"Integrierte Sekundarschule","legal_status":1,"fax":"627397955","phone":"62739790","director":"Hr. Koglin","location":{"lat":"52.45825","lon":"13.4500905315817"}},{"name":"Clay-Schule","id":"BE-15720","address":"Bildhauerweg 9, 12355 Berlin","website":"http://www.clay-schule.de","email":"\tsekretariat@clay-schule.de","school_type":"Integrierte Sekundarschule","legal_status":1,"fax":"66004200","phone":"660040","director":"Hr. Gruschke-Schäfer","location":{"lat":"52.4189934","lon":"13.4887033"}},{"name":"Adolf-Reichwein-Schule","id":"BE-15721","address":"Sonnenallee 188, 12059 Berlin","website":"http://www.adolf-reichwein-schule.com","email":"mail@adolf-reichwein-schule.com","school_type":"Förderschwerp.\"Lernen\"","legal_status":1,"fax":"63225121","phone":"63225111","director":"Hr. Schüssler","location":{"lat":"52.4755247","lon":"13.4504528817729"}},{"name":"Herman-Nohl-Schule","id":"BE-15722","address":"Hannemannstr. 69, 12347 Berlin","website":"http://www.HNS.cidsnet.de","email":"sekretariat@nohl-schule.de","school_type":"Förderschwerp.\"Lernen\"","legal_status":1,"fax":"62008344","phone":"62008335","director":"komm. Hr. Ziegfeld","location":{"lat":"52.4541666","lon":"13.4392363"}},{"name":"Schule am Zwickauer Damm","id":"BE-15723","address":", undefined Berlin","email":"","school_type":"Förderschwerp.\"Lernen\"","legal_status":1,"fax":"","phone":"","director":""},{"name":"Schule am Zwickauer Damm","id":"BE-15724","address":", undefined Berlin","email":"","school_type":"Integrierte Sekundarschule","legal_status":1,"fax":"","phone":"","director":""},{"name":"Schule am Hasenhegerweg","id":"BE-15725","address":", undefined Berlin","email":"","school_type":"Förderschwerp.\"Lernen\"","legal_status":1,"fax":"","phone":"","director":""},{"name":"Elisabeth-Schulen","id":"BE-15726","address":"Parkstr. 22, 13086 Berlin","website":"http://www.elisabeth-schulen.de","email":"elisabeth-schulen@hoffbauer-bildung.de","school_type":"Fachschule","legal_status":1,"fax":"96249460","phone":"96249450","director":"Fr. Friedrich","location":{"lat":"52.5530966","lon":"13.4569842"}},{"name":"Elisabeth-Schulen","id":"BE-15727","address":"Parkstr. 22, 13086 Berlin","website":"http://www.elisabeth-schulen.de","email":"elisabeth-schulen@hoffbauer-bildung.de","school_type":"Berufsfachschule","legal_status":1,"fax":"96249460","phone":"96249450","director":"Fr. Friedrich","location":{"lat":"52.5530966","lon":"13.4569842"}},{"name":"GPB College gGmbH","id":"BE-15728","address":", undefined Berlin","email":"","school_type":"Berufsfachschule","legal_status":1,"fax":"","phone":"","director":""},{"name":"GPB College gGmbH","id":"BE-15729","address":", undefined Berlin","email":"","school_type":"Fachoberschule","legal_status":1,"fax":"","phone":"","director":""},{"name":"GPB College gGmbH","id":"BE-15730","address":", undefined Berlin","email":"","school_type":"Fachschule","legal_status":1,"fax":"","phone":"","director":""},{"name":"bbw Akademie für Betriebswirtschaftliche Weiterbildung GmbH","id":"BE-15731","address":"Rheinpfalzallee 82, 10318 Berlin","website":"http://www.bbw-berufliche%20Schulen.de","email":"schulsekretariat@bbw-berufliche-schulen.de","school_type":"Berufsschule","legal_status":1,"fax":"50929-299","phone":"50929-403","director":"Hr. Kotyrba","location":{"lat":"52.4891322","lon":"13.5377821"}},{"name":"bbw Akademie für Betriebswirtschaftliche Weiterbildung GmbH","id":"BE-15732","address":"Rheinpfalzallee 82, 10318 Berlin","website":"http://www.bbw-berufliche%20Schulen.de","email":"schulsekretariat@bbw-berufliche-schulen.de","school_type":"Fachoberschule","legal_status":1,"fax":"50929-299","phone":"50929-403","director":"Hr. Kotyrba","location":{"lat":"52.4891322","lon":"13.5377821"}},{"name":"bbw Akademie für Betriebswirtschaftliche Weiterbildung GmbH","id":"BE-15733","address":"Rheinpfalzallee 82, 10318 Berlin","website":"http://www.bbw-berufliche%20Schulen.de","email":"schulsekretariat@bbw-berufliche-schulen.de","school_type":"Berufsfachschule","legal_status":1,"fax":"50929-299","phone":"50929-403","director":"Hr. Kotyrba","location":{"lat":"52.4891322","lon":"13.5377821"}},{"name":"bbw Akademie für Betriebswirtschaftliche Weiterbildung GmbH","id":"BE-15734","address":"Rheinpfalzallee 82, 10318 Berlin","website":"http://www.bbw-berufliche%20Schulen.de","email":"schulsekretariat@bbw-berufliche-schulen.de","school_type":"Fachschule","legal_status":1,"fax":"50929-299","phone":"50929-403","director":"Hr. Kotyrba","location":{"lat":"52.4891322","lon":"13.5377821"}},{"name":"DIE NEUE SCHULE","id":"BE-15735","address":"Gieselerstr. 30 A, 10713 Berlin","website":"http://www.neueschule.de","email":"info@neueschule.de","school_type":"Sprachenschule","legal_status":1,"fax":"8738613","phone":"8730373","director":"Fr. Haußer-Knabe, Fr. McDonough","location":{"lat":"52.4915969","lon":"13.317601"}},{"name":"BEST-Sabel Oberschule","id":"BE-15736","address":"Lindenstr. 1, 12555 Berlin","website":"http://www.best-sabel.de","email":"oberschule@best-sabel.de","school_type":"Gymnasien","legal_status":1,"fax":"2803609-71","phone":"2803609-70","director":"Fr. Dr. Dietrich"},{"name":"BEST-Sabel Oberschule","id":"BE-15737","address":"Lindenstr. 1, 12555 Berlin","website":"http://www.best-sabel.de","email":"oberschule@best-sabel.de","school_type":"Integrierte Sekundarschule","legal_status":1,"fax":"2803609-71","phone":"2803609-70","director":"Fr. Dr. Dietrich"},{"name":"Hans-Fallada-Schule","id":"BE-15738","address":", undefined Berlin","email":"","school_type":"Förderschwerp.\"Lernen\"","legal_status":1,"fax":"","phone":"","director":""},{"name":"Schule am Bienwaldring","id":"BE-15739","address":"Breitunger Weg 1, 12349 Berlin","website":"http://www.bienwaldring.cidsnet.de","email":"berlin.08S07@t-online.de","school_type":"Förderschwerp.\"Geistige Entwicklung\"","legal_status":1,"fax":"7005955","phone":"7430100","director":"komm. Fr. Philipp","location":{"lat":"52.4215285","lon":"13.4252261"}},{"name":"Schilling-Schule","id":"BE-15740","address":"Paster-Behrens-Str. 81, 12359 Berlin","website":"http://online.schillingschule.de","email":"schulleitung@schillingschule.de","school_type":"Übrige Förderschwerpunkte","legal_status":1,"fax":"6010177","phone":"6000272","director":"Fr. Seifert","location":{"lat":"52.44240115","lon":"13.4457812343328"}},{"name":"Schilling-Schule","id":"BE-15741","address":"Paster-Behrens-Str. 81, 12359 Berlin","website":"http://online.schillingschule.de","email":"schulleitung@schillingschule.de","school_type":"Förderschwerp.\"Geistige Entwicklung\"","legal_status":1,"fax":"6010177","phone":"6000272","director":"Fr. Seifert","location":{"lat":"52.44240115","lon":"13.4457812343328"}},{"name":"Schule an der Windmühle","id":"BE-15742","address":", undefined Berlin","email":"","school_type":"Übrige Förderschwerpunkte","legal_status":1,"fax":"","phone":"","director":""},{"name":"Schule an der Windmühle","id":"BE-15743","address":", undefined Berlin","email":"","school_type":"Integrierte Sekundarschule","legal_status":1,"fax":"","phone":"","director":""},{"name":"Lise-Meitner-Schule (OSZ Chemie, Physik und Biologie)","id":"BE-15744","address":"Rudower Str. 184, 12351 Berlin","website":"http://osz-lise-meitner.eu","email":"verwaltung@osz-lise-meitner.eu","school_type":"Berufliches Gymnasium","legal_status":1,"fax":"660689-60","phone":"660689-0","director":"Fr. Christiansen","location":{"lat":"52.4302525","lon":"13.4750961"}},{"name":"Lise-Meitner-Schule (OSZ Chemie, Physik und Biologie)","id":"BE-15745","address":"Rudower Str. 184, 12351 Berlin","website":"http://osz-lise-meitner.eu","email":"verwaltung@osz-lise-meitner.eu","school_type":"Berufsoberschule","legal_status":1,"fax":"660689-60","phone":"660689-0","director":"Fr. Christiansen","location":{"lat":"52.4302525","lon":"13.4750961"}},{"name":"Lise-Meitner-Schule (OSZ Chemie, Physik und Biologie)","id":"BE-15746","address":"Rudower Str. 184, 12351 Berlin","website":"http://osz-lise-meitner.eu","email":"verwaltung@osz-lise-meitner.eu","school_type":"Berufsschule","legal_status":1,"fax":"660689-60","phone":"660689-0","director":"Fr. Christiansen","location":{"lat":"52.4302525","lon":"13.4750961"}},{"name":"Lise-Meitner-Schule (OSZ Chemie, Physik und Biologie)","id":"BE-15747","address":"Rudower Str. 184, 12351 Berlin","website":"http://osz-lise-meitner.eu","email":"verwaltung@osz-lise-meitner.eu","school_type":"Berufsfachschule","legal_status":1,"fax":"660689-60","phone":"660689-0","director":"Fr. Christiansen","location":{"lat":"52.4302525","lon":"13.4750961"}},{"name":"Lise-Meitner-Schule (OSZ Chemie, Physik und Biologie)","id":"BE-15748","address":"Rudower Str. 184, 12351 Berlin","website":"http://osz-lise-meitner.eu","email":"verwaltung@osz-lise-meitner.eu","school_type":"Fachoberschule","legal_status":1,"fax":"660689-60","phone":"660689-0","director":"Fr. Christiansen","location":{"lat":"52.4302525","lon":"13.4750961"}},{"name":"Lise-Meitner-Schule (OSZ Chemie, Physik und Biologie)","id":"BE-15749","address":"Rudower Str. 184, 12351 Berlin","website":"http://osz-lise-meitner.eu","email":"verwaltung@osz-lise-meitner.eu","school_type":"Fachschule","legal_status":1,"fax":"660689-60","phone":"660689-0","director":"Fr. Christiansen","location":{"lat":"52.4302525","lon":"13.4750961"}},{"name":"Wilhelm-Ostwald-Schule (OSZ Gestaltung)","id":"BE-15750","address":"Immenweg 6, 12169 Berlin","website":"http://www.wilhelm-ostwald-schule.de","email":"verwaltung@wilhelm-ostwald-schule.de","school_type":"Fachschule","legal_status":1,"fax":"90166-706","phone":"90166-700","director":"Fr. Müller","location":{"lat":"52.45278415","lon":"13.3462894983398"}},{"name":"Wilhelm-Ostwald-Schule (OSZ Gestaltung)","id":"BE-15751","address":"Immenweg 6, 12169 Berlin","website":"http://www.wilhelm-ostwald-schule.de","email":"verwaltung@wilhelm-ostwald-schule.de","school_type":"Berufsschule","legal_status":1,"fax":"90166-706","phone":"90166-700","director":"Fr. Müller","location":{"lat":"52.45278415","lon":"13.3462894983398"}},{"name":"Wilhelm-Ostwald-Schule (OSZ Gestaltung)","id":"BE-15752","address":"Immenweg 6, 12169 Berlin","website":"http://www.wilhelm-ostwald-schule.de","email":"verwaltung@wilhelm-ostwald-schule.de","school_type":"Fachoberschule","legal_status":1,"fax":"90166-706","phone":"90166-700","director":"Fr. Müller","location":{"lat":"52.45278415","lon":"13.3462894983398"}},{"name":"Wilhelm-Ostwald-Schule (OSZ Gestaltung)","id":"BE-15753","address":"Immenweg 6, 12169 Berlin","website":"http://www.wilhelm-ostwald-schule.de","email":"verwaltung@wilhelm-ostwald-schule.de","school_type":"Berufsfachschule","legal_status":1,"fax":"90166-706","phone":"90166-700","director":"Fr. Müller","location":{"lat":"52.45278415","lon":"13.3462894983398"}},{"name":"OSZ Informations- und Medizintechnik","id":"BE-15754","address":"Haarlemer Str. 23-27, 12359 Berlin","website":"http://www.oszimt.de","email":"dahms@oszimt.de","school_type":"Berufliches Gymnasium","legal_status":1,"fax":"225027-809","phone":"225027-800","director":"Hr. Dahms","location":{"lat":"52.4580742","lon":"13.4522187"}},{"name":"OSZ Informations- und Medizintechnik","id":"BE-15755","address":"Haarlemer Str. 23-27, 12359 Berlin","website":"http://www.oszimt.de","email":"dahms@oszimt.de","school_type":"Fachoberschule","legal_status":1,"fax":"225027-809","phone":"225027-800","director":"Hr. Dahms","location":{"lat":"52.4580742","lon":"13.4522187"}},{"name":"OSZ Informations- und Medizintechnik","id":"BE-15756","address":"Haarlemer Str. 23-27, 12359 Berlin","website":"http://www.oszimt.de","email":"dahms@oszimt.de","school_type":"Berufsoberschule","legal_status":1,"fax":"225027-809","phone":"225027-800","director":"Hr. Dahms","location":{"lat":"52.4580742","lon":"13.4522187"}},{"name":"OSZ Informations- und Medizintechnik","id":"BE-15757","address":"Haarlemer Str. 23-27, 12359 Berlin","website":"http://www.oszimt.de","email":"dahms@oszimt.de","school_type":"Berufsschule","legal_status":1,"fax":"225027-809","phone":"225027-800","director":"Hr. Dahms","location":{"lat":"52.4580742","lon":"13.4522187"}},{"name":"OSZ Informations- und Medizintechnik","id":"BE-15758","address":"Haarlemer Str. 23-27, 12359 Berlin","website":"http://www.oszimt.de","email":"dahms@oszimt.de","school_type":"Berufsfachschule","legal_status":1,"fax":"225027-809","phone":"225027-800","director":"Hr. Dahms","location":{"lat":"52.4580742","lon":"13.4522187"}},{"name":"OSZ Informations- und Medizintechnik","id":"BE-15759","address":"Haarlemer Str. 23-27, 12359 Berlin","website":"http://www.oszimt.de","email":"dahms@oszimt.de","school_type":"Fachschule","legal_status":1,"fax":"225027-809","phone":"225027-800","director":"Hr. Dahms","location":{"lat":"52.4580742","lon":"13.4522187"}},{"name":"Carl-Legien-Schule","id":"BE-15760","address":"Leinestr. 37-45, 12049 Berlin","website":"http://www.Carl-Legien-Schule.de","email":"sekretariat@carl-legien-schule.de","school_type":"Berufsschule","legal_status":1,"fax":"814654-54","phone":"814654-0","director":"Fr. Groth","location":{"lat":"52.4726375","lon":"13.4234617252828"}},{"name":"Carl-Legien-Schule","id":"BE-15761","address":"Leinestr. 37-45, 12049 Berlin","website":"http://www.Carl-Legien-Schule.de","email":"sekretariat@carl-legien-schule.de","school_type":"Berufsfachschule","legal_status":1,"fax":"814654-54","phone":"814654-0","director":"Fr. Groth","location":{"lat":"52.4726375","lon":"13.4234617252828"}},{"name":"Katholische Schule Sankt Marien (Grundschule)","id":"BE-15762","address":"Hugo-Heimann-Str. 2, 12353 Berlin","website":"http://www.marien-grund.cidsnet.de","email":"Marien.Grund@t-online.de","school_type":"Grundschule","legal_status":1,"fax":"66707578","phone":"6052032","director":"Fr. Bielsky","location":{"lat":"52.4237678","lon":"13.4619892"}},{"name":"Immanuel-Grundschule","id":"BE-15763","address":"Stadtrandstr. 465, 13589 Berlin","website":"http://www.christburg-campus.de","email":"immanuel@christburg-campus.de","school_type":"Grundschule","legal_status":1,"fax":"44312372-39","phone":"44312372-30","director":"Fr. Preiß","location":{"lat":"52.5499283","lon":"13.1524937"}},{"name":"Evangelische Schule Neukölln (Integrierte Sekundarschule)","id":"BE-15764","address":"Mainzer Str. 47, 12053 Berlin","website":"http://www.evangelische-schule-neukoelln.de","email":"buero@evangelische-schule-neukoelln.de","school_type":"Integrierte Sekundarschule","legal_status":1,"fax":"6242028","phone":"6242027","director":"Hr. Knauer-Huckauf","location":{"lat":"52.4830201","lon":"13.4279217136748"}},{"name":"BBA-Akademie für Immobilienwirtschaft e.V.","id":"BE-15765","address":"Lützowstr. 106 , 10785 Berlin","website":"http://www.bba-campus.de","email":"kontakt@bba-campus.de","school_type":"Berufsschule","legal_status":1,"fax":"230855-20","phone":"230855-0","director":"Fr. Reinhold","location":{"lat":"52.50119995","lon":"13.3686212332065"}},{"name":"Katholische Schule Sankt Marien","id":"BE-15766","address":"Donaustr. 58, 12043 Berlin","website":"http://www.marienschule-berlin.de","email":"sekretariat@marienschule-berlin.de","school_type":"Gymnasien","legal_status":1,"fax":"3088162-30","phone":"3988162-0","director":"Hr. Weischede, Hr. Kiebel","location":{"lat":"52.4773129","lon":"13.4431371"}},{"name":"Katholische Schule Sankt Marien","id":"BE-15767","address":"Donaustr. 58, 12043 Berlin","website":"http://www.marienschule-berlin.de","email":"sekretariat@marienschule-berlin.de","school_type":"Integrierte Sekundarschule","legal_status":1,"fax":"3088162-30","phone":"3988162-0","director":"Hr. Weischede, Hr. Kiebel","location":{"lat":"52.4773129","lon":"13.4431371"}},{"name":"Bouché-Schule (Grundschule)","id":"BE-15768","address":"Bouchestr. 5, 12435 Berlin","website":"http://www.bouche-schule.de","email":"sekretariat@bouche-schule.de","school_type":"Grundschule","legal_status":1,"fax":"5337-476","phone":"5337-745","director":"Fr. Seiberl","location":{"lat":"52.4933381","lon":"13.452741"}},{"name":"Sonnenblumen-Schule (Grundschule)","id":"BE-15769","address":", undefined Berlin","email":"","school_type":"Grundschule","legal_status":1,"fax":"","phone":"","director":""},{"name":"Melli-Beese-Schule (Grundschule)","id":"BE-15770","address":"Engelhardstr. 18, 12487 Berlin","website":"http://www.melli-beese-g.cidsnet.de","email":"melli-beese-grundschule@t-online.de","school_type":"Grundschule","legal_status":1,"fax":"6361390","phone":"6361390","director":"Hr. Hildebrandt","location":{"lat":"52.4467122","lon":"13.5105236617647"}},{"name":"Heide-Schule (Grundschule)","id":"BE-15771","address":"Florian-Geyer-Str. 87, 12489 Berlin","website":"http://www.heideschule-berlin.de","email":"heidegrundschule-berlin@gmx.de","school_type":"Grundschule","legal_status":1,"fax":"67822794","phone":"67822789   ","director":"Fr. Maier","location":{"lat":"52.4384368","lon":"13.5440680304692"}},{"name":"Schule am Berg (Grundschule)","id":"BE-15772","address":"Köpenicker Str. 31, 12524 Berlin","website":"http://www.grundschule-am-berg.de","email":"grundschuleamberg@t-online.de","school_type":"Grundschule","legal_status":1,"fax":"67068424","phone":"6728350","director":"Fr. Kirschner","location":{"lat":"52.4186871","lon":"13.5379856"}},{"name":"Schule am Altglienicker Wasserturm (Grundschule)","id":"BE-15773","address":"Sachsenstr. 22, 12524 Berlin","website":"http://www.saawt.de","email":"info@saawt.de","school_type":"Grundschule","legal_status":1,"fax":"61504272","phone":"6728913","director":"N.N.","location":{"lat":"52.4110707","lon":"13.5541222462393"}},{"name":"Sophie-Brahe-Gemeinschaftsschule","id":"BE-15774","address":", undefined Berlin","email":"","school_type":"Integrierte Sekundarschule","legal_status":1,"fax":"","phone":"","director":""},{"name":"Hans-Grade-Schule (Integrierte Sekundarschule)","id":"BE-15775","address":", undefined Berlin","email":"","school_type":"Integrierte Sekundarschule","legal_status":1,"fax":"","phone":"","director":""},{"name":"Fritz-Kühn-Schule (Integrierte Sekundarschule)","id":"BE-15776","address":"Dahmestr. 45, 12526 Berlin","website":"http://www.fritz-kuehn-schule.de","email":"info@fritz-kuehn-schule.de","school_type":"Integrierte Sekundarschule","legal_status":1,"fax":"6763958","phone":"6764243","director":"Hr. Grammelsdorff","location":{"lat":"52.400879","lon":"13.5639504038676"}},{"name":"Marcel-Breuer-Schule (OSZ Holztechnik, Glastechnik und Design)","id":"BE-15777","address":"Gustav-Adolf-Str. 66, 13086 Berlin","website":"http://www.marcel-breuer-schule.de","email":"info@marcel-breuer-schule.de","school_type":"Fachoberschule","legal_status":1,"fax":"9120521-74","phone":"9120521-75","director":"Hr. Sonntag","location":{"lat":"52.5584723","lon":"13.4497927479903"}},{"name":"Marcel-Breuer-Schule (OSZ Holztechnik, Glastechnik und Design)","id":"BE-15778","address":"Gustav-Adolf-Str. 66, 13086 Berlin","website":"http://www.marcel-breuer-schule.de","email":"info@marcel-breuer-schule.de","school_type":"Berufsschule","legal_status":1,"fax":"9120521-74","phone":"9120521-75","director":"Hr. Sonntag","location":{"lat":"52.5584723","lon":"13.4497927479903"}},{"name":"Marcel-Breuer-Schule (OSZ Holztechnik, Glastechnik und Design)","id":"BE-15779","address":"Gustav-Adolf-Str. 66, 13086 Berlin","website":"http://www.marcel-breuer-schule.de","email":"info@marcel-breuer-schule.de","school_type":"Berufsfachschule","legal_status":1,"fax":"9120521-74","phone":"9120521-75","director":"Hr. Sonntag","location":{"lat":"52.5584723","lon":"13.4497927479903"}},{"name":"Marcel-Breuer-Schule (OSZ Holztechnik, Glastechnik und Design)","id":"BE-15780","address":"Gustav-Adolf-Str. 66, 13086 Berlin","website":"http://www.marcel-breuer-schule.de","email":"info@marcel-breuer-schule.de","school_type":"Berufsoberschule","legal_status":1,"fax":"9120521-74","phone":"9120521-75","director":"Hr. Sonntag","location":{"lat":"52.5584723","lon":"13.4497927479903"}},{"name":"Marcel-Breuer-Schule (OSZ Holztechnik, Glastechnik und Design)","id":"BE-15781","address":"Gustav-Adolf-Str. 66, 13086 Berlin","website":"http://www.marcel-breuer-schule.de","email":"info@marcel-breuer-schule.de","school_type":"Berufliches Gymnasium","legal_status":1,"fax":"9120521-74","phone":"9120521-75","director":"Hr. Sonntag","location":{"lat":"52.5584723","lon":"13.4497927479903"}},{"name":"1. Schulpraktisches Seminar Treptow-Köpenick","id":"BE-15782","address":"Luisenstr. 16, 12557 Berlin","email":"claudia.koch@senbjw.berlin.de","school_type":"Schulpraktisches Seminar","legal_status":1,"fax":"3474509-25","phone":"3474509-20","director":"Fr. Kapella","location":{"lat":"52.4410181","lon":"13.5782431"}},{"name":"Gebrüder-Montgolfier-Gymnasium","id":"BE-15783","address":"Ellernweg 20-22, 12487 Berlin","website":"http://www.gemont.de","email":"sekretariat@gemont.de","school_type":"Gymnasien","legal_status":1,"fax":"6316678","phone":"6316677","director":"Fr. Müller","location":{"lat":"52.4479048","lon":"13.5043931"}},{"name":"Berlin Metropolitan School (Integrierte Sekundarschule)","id":"BE-15784","address":"Linienstr. 122, 10115 Berlin","website":"http://www.metropolitanschool.coml","email":"info@metropolitanschool.com","school_type":"Integrierte Sekundarschule","legal_status":1,"fax":"8872739-20","phone":"8872739-0","director":"Fr. O`Fee; Hr. Churchill","location":{"lat":"52.5268215","lon":"13.3900449"}},{"name":"Archenhold-Gymnasium","id":"BE-15785","address":"Rudower Str. 7, 12439 Berlin","website":"http://www.archenhold.de","email":"sekretariat@archenhold.de","school_type":"Gymnasien","legal_status":1,"fax":"6360185","phone":"6360195","director":"Hr. Uhlig","location":{"lat":"52.4513705","lon":"13.5228913"}},{"name":"Anne-Frank-Gymnasium","id":"BE-15786","address":"Uranusstr. 15 -17, 12524 Berlin","website":"http://www.anne-frank-schule-berlin.de","email":"afgschtr@web.de","school_type":"Gymnasien","legal_status":1,"fax":"516533620","phone":"51653360","director":"Hr. Raffelt","location":{"lat":"52.399794","lon":"13.5236429"}},{"name":"Anna-Seghers-Schule (Gemeinschaftsschule)","id":"BE-15787","address":"Radickestr. 43, 12489 Berlin","website":"http://www.anna-seghers-os.de","email":"kontakt@anna-seghers-os.de","school_type":"Integrierte Sekundarschule","legal_status":1,"fax":"67747-13","phone":"67747-66","director":"Fr. Jurczyk","location":{"lat":"52.4351618","lon":"13.548529"}},{"name":"Schulen der ASIG Stiftung e.V.","id":"BE-15788","address":", undefined Berlin","email":"","school_type":"Berufsfachschule","legal_status":1,"fax":"","phone":"","director":""},{"name":"Schulen der ASIG Stiftung e.V.","id":"BE-15789","address":", undefined Berlin","email":"","school_type":"Fachschule","legal_status":1,"fax":"","phone":"","director":""},{"name":"Treptow-Kolleg","id":"BE-15790","address":"Kiefholzstr. 274, 12437 Berlin","website":"http://www.treptow-kolleg.de","email":"Schulleitung@treptow-kolleg.de","school_type":"Volkshochschul-Kolleg","legal_status":1,"fax":"5329142","phone":"5329141","director":"Hr. Frege","location":{"lat":"52.4682348","lon":"13.4836784373216"}},{"name":"2. Schulpraktisches Seminar Treptow-Köpenick","id":"BE-15791","address":"Luisenstr. 16, 12557 Berlin","email":"heike.mirschwa@senbjw.berlin.de","school_type":"Schulpraktisches Seminar","legal_status":1,"fax":"3474509-15","phone":"3474509-10","director":"Fr. Ullsperger","location":{"lat":"52.4410181","lon":"13.5782431"}},{"name":"Freie Waldorfschule Berlin-Südost","id":"BE-15792","address":"Bruno-Bürgel-Weg 9, 12439 Berlin","website":"http://www.waldorfsuedost.de","email":"Post@Waldorfsuedost.de","school_type":"Freie Waldorfschule","legal_status":1,"fax":"677980-11","phone":"677980-0","director":"Fr. Daum","location":{"lat":"52.4524677","lon":"13.5340954"}},{"name":"Wendenschloß-Schule (Grundschule)","id":"BE-15793","address":"Köpenzeile 123, 12557 Berlin","website":"http://www.wendenschloss-g.cidsnet.de","email":"wendenschloss-g.rektorat@t-online.de","school_type":"Grundschule","legal_status":1,"fax":"651970-2","phone":"651970-3","director":"Fr. Köhler","location":{"lat":"52.4284359","lon":"13.5953059"}},{"name":"Uhlenhorst-Grundschule","id":"BE-15794","address":"Wongrowitzer Steig 37, 12555 Berlin","website":"http://www.uhlenhorst-grundschule.de","email":"uhlenhorst-grundschule@t-online.de","school_type":"Grundschule","legal_status":1,"fax":"65041-45","phone":"65041-44","director":"Fr. Jentzsch","location":{"lat":"52.4676323","lon":"13.5797786"}},{"name":"Edison-Grundschule","id":"BE-15795","address":"Wattstr. 69-70, 12459 Berlin","website":"http://www.edison-grundschule.de","email":"edisongrundschule@t-online.de","school_type":"Grundschule","legal_status":1,"fax":"5351013","phone":"5350657","director":"Fr. Swjetik","location":{"lat":"52.4662887","lon":"13.5088925"}},{"name":"Müggelsee-Schule (Grundschule)","id":"BE-15796","address":"Aßmannstr. 63, 12587 Berlin","website":"http://www.mueggelsee-grundschule.de","email":"info@mueggelsee-grundschule.de","school_type":"Grundschule","legal_status":1,"fax":"6455478","phone":"6458806","director":"Hr. Schreiber","location":{"lat":"52.4507677","lon":"13.6270506072221"}},{"name":"Friedrichshagener Schule (Grundschule)","id":"BE-15797","address":"Peter-Hille-Str. 7, 12587 Berlin","website":"http://www.friedrichshagener-grundschule.cidsnet.de","email":"friehagrund@t-online.de","school_type":"Grundschule","legal_status":1,"fax":"6455395","phone":"6455411","director":"Fr. Dunkel","location":{"lat":"52.45449085","lon":"13.6219485987571"}},{"name":"Judith-Kerr-Grundschule","id":"BE-15798","address":"Friedrichshaller Str. 13, 14199 Berlin","website":"http://www.judith-kerr-schule.de","email":"sekretariat@judith-kerr-schule.de","school_type":"Grundschule","legal_status":1,"fax":"89799418","phone":"8979940","director":"Fr. Heitmann","location":{"lat":"52.47615605","lon":"13.2932004450419"}},{"name":"Integrierte Sekundarschule Wilmersdorf","id":"BE-15799","address":"Kranzer Str. 3, 14199 Berlin","website":"http://www.sekundarschule-wilmersdorf.de","email":"kontakt@sekundarschule-wilmersdorf.de","school_type":"Integrierte Sekundarschule","legal_status":1,"fax":"8978459129","phone":"897845910","director":"Fr. Schult","location":{"lat":"52.4828313","lon":"13.293624"}},{"name":"Hildegard-Wegscheider-Gymnasium","id":"BE-15800","address":"Lassenstr. 16-20, 14193 Berlin","website":"http://www.hwos.de","email":"wegscheider-gymnasium@gmx.de","school_type":"Gymnasien","legal_status":1,"fax":"89745421-29","phone":"89745421-0","director":"komm. Fr. Hammer","location":{"lat":"52.4841407","lon":"13.2776847"}},{"name":"Walther-Rathenau-Gymnasium","id":"BE-15801","address":"Herbertstr. 2-6, 14193 Berlin","website":"http://www.wrs-berlin.de","email":"slwro@t-online.de","school_type":"Gymnasien","legal_status":1,"fax":"89029918","phone":"8902990","director":"Fr. Knobelsdorf","location":{"lat":"52.4889385","lon":"13.2824008"}},{"name":"Marie-Curie-Gymnasium","id":"BE-15802","address":"Weimarische Str. 21, 10715 Berlin","website":"http://www.mco-berlin.de","email":"schulleitung@mco-berlin.de","school_type":"Gymnasien","legal_status":1,"fax":"8599497-129","phone":"8599497-10","director":"Hr. Jacobs","location":{"lat":"52.4801516","lon":"13.3244889"}},{"name":"Goethe-Gymnasium","id":"BE-15803","address":"Gasteiner Str. 23, 10717 Berlin","website":"http://www.goethe-gymnasium-berlin.cidsnet.de","email":"info.goethe-gymnasium@t-online.de","school_type":"Gymnasien","legal_status":1,"fax":"8617680","phone":"8649960","director":"Fr. Rupprecht","location":{"lat":"52.4872787","lon":"13.3216589"}},{"name":"Werbellinsee-Grundschule","id":"BE-15804","address":"Luitpoldstr. 38, 10781 Berlin","website":"http://www.Werbellinsee-Grundschule.cidsnet.de","email":"sekretariat@werbellinsee.schulen-ts.de","school_type":"Grundschule","legal_status":1,"fax":"902774796","phone":"90 277 7153","director":"Fr. Schirop","location":{"lat":"52.4950516","lon":"13.3462756"}},{"name":"Havelland-Grundschule","id":"BE-15805","address":"Kolonnenstr. 30, 10829 Berlin","website":"http://www.havelland-grundschule.cidsnet.de","email":"sekretariat@havelland.schulen-ts.de","school_type":"Grundschule","legal_status":1,"fax":"902777060","phone":"902777155","director":"Fr. Schwanke","location":{"lat":"52.484833","lon":"13.3693011"}},{"name":"Sternberg-Grundschule","id":"BE-15806","address":"Mettestr. 8, 10825 Berlin","website":"http://www.sternberg-grundschulen.de","email":"rektor@sternberg.schulen-ts.de","school_type":"Grundschule","legal_status":1,"fax":"902776638","phone":"902777156","director":"Fr. Beermann","location":{"lat":"52.4803608","lon":"13.3390601"}},{"name":"Schule für Bildende Kunst und Gestaltung, Andrei Krioukov GmbH","id":"BE-15807","address":", undefined Berlin","email":"","school_type":"Künstlerische Schule","legal_status":1,"fax":"","phone":"","director":""},{"name":"Miami Ad School Berlin","id":"BE-15808","address":", undefined Berlin","email":"","school_type":"Sonstige Ergänzungsschule","legal_status":1,"fax":"","phone":"","director":""},{"name":"Lindenhof-Grundschule","id":"BE-15809","address":"Reglinstr. 29, 12105 Berlin","website":"http://www.Lindenhof.cidsnet.de","email":"sekretariat@lindenhof.schulen-ts.de","school_type":"Grundschule","legal_status":1,"fax":"902774584","phone":"902777157","director":"Fr. Stein","location":{"lat":"52.45823825","lon":"13.3634855617962"}},{"name":"Freie Schule am Mauerpark (Grundschule)","id":"BE-15810","address":"Wolliner Str. 25-26, 13355 Berlin","website":"http://www.freieschuleberlin.de","email":"info@freieschuleberlin.de","school_type":"Grundschule","legal_status":1,"fax":"4202269-1","phone":"4202269-0","director":"Fr. Hoffmann","location":{"lat":"52.5406759","lon":"13.4013882777817"}},{"name":"Private Kant-Schule (Integrierte Sekundarschule)","id":"BE-15811","address":"Körnerstr. 11, 12169 Berlin","website":"http://www.kant-oberschule.de","email":"info@kant-oberschule.de","school_type":"Integrierte Sekundarschule","legal_status":1,"fax":"7900036-9","phone":"7900036-0","director":"Fr. Warndorf-May","location":{"lat":"52.4600451","lon":"13.329476"}},{"name":"Ballett Centrum Kurfürstendamm Karree Musical Schule","id":"BE-15812","address":"Kurfürstendamm 207-208, 10719 Berlin","website":"http://www.ballettcentrum-berlin.de","email":"ballettcentrum@gmx.de","school_type":"Künstlerische Schule","legal_status":1,"fax":"8814459","phone":"8831175","director":"Hr. Fletcher","location":{"lat":"52.5008782","lon":"13.3231121"}},{"name":"Schauspielschule Charlottenburg GmbH","id":"BE-15813","address":"Otto-Suhr-Allee 94, 10585 Berlin","website":"http://www.schauspiel-schule.de","email":"info@schauspiel-schule.de","school_type":"Künstlerische Schule","legal_status":1,"fax":"34097732","phone":"34097731","director":"Hr. Platareanu","location":{"lat":"52.5172873","lon":"13.3094391"}},{"name":"Conrad-Schule (Grundschule)","id":"BE-15814","address":"Schulstr. 4, 14109 Berlin","website":"http://www.conrad-schule.de","email":"info@conrad-schule.de","school_type":"Grundschule","legal_status":1,"fax":"9029969-76","phone":"9029969-26","director":"Hr. Dr. Plessen","location":{"lat":"52.4148321","lon":"13.1467866"}},{"name":"Mierendorff-Grundschule","id":"BE-15815","address":", undefined Berlin","email":"","school_type":"Grundschule","legal_status":1,"fax":"","phone":"","director":""},{"name":"Helmuth-James-von-Moltke-Grundschule","id":"BE-15816","address":"Heckerdamm 221, 13627 Berlin","website":"http://www.moltke-grundschule.de","email":"schulsekretariat@moltke-grundschule.de","school_type":"Grundschule","legal_status":1,"fax":"3480689-129","phone":"3480689-10","director":"komm. Fr. Wierschin","location":{"lat":"52.5389493","lon":"13.301230152629"}},{"name":"Schinkel-Grundschule","id":"BE-15817","address":"Nithackstr. 8, 10585 Berlin","website":"http://www.esg.cidsnet.de","email":"esgbuero@t-online.de","school_type":"Grundschule","legal_status":1,"fax":"902924040","phone":"902924001","director":"Fr. Weber","location":{"lat":"52.5176605","lon":"13.2985585"}},{"name":"Anna-Freud-Schule (OSZ Sozialwesen)","id":"BE-15818","address":"Halemweg 22, 13627 Berlin","website":"http://www.anna-freud-osz.de","email":"post@anna-freud-osz.de","school_type":"Berufsoberschule","legal_status":1,"fax":"364178-20","phone":"364178-10","director":"Hr. Alex","location":{"lat":"52.5380635","lon":"13.2876166"}},{"name":"Anna-Freud-Schule (OSZ Sozialwesen)","id":"BE-15819","address":"Halemweg 22, 13627 Berlin","website":"http://www.anna-freud-osz.de","email":"post@anna-freud-osz.de","school_type":"Fachschule","legal_status":1,"fax":"364178-20","phone":"364178-10","director":"Hr. Alex","location":{"lat":"52.5380635","lon":"13.2876166"}},{"name":"Anna-Freud-Schule (OSZ Sozialwesen)","id":"BE-15820","address":"Halemweg 22, 13627 Berlin","website":"http://www.anna-freud-osz.de","email":"post@anna-freud-osz.de","school_type":"Fachoberschule","legal_status":1,"fax":"364178-20","phone":"364178-10","director":"Hr. Alex","location":{"lat":"52.5380635","lon":"13.2876166"}},{"name":"Anna-Freud-Schule (OSZ Sozialwesen)","id":"BE-15821","address":"Halemweg 22, 13627 Berlin","website":"http://www.anna-freud-osz.de","email":"post@anna-freud-osz.de","school_type":"Berufliches Gymnasium","legal_status":1,"fax":"364178-20","phone":"364178-10","director":"Hr. Alex","location":{"lat":"52.5380635","lon":"13.2876166"}},{"name":"Anna-Freud-Schule (OSZ Sozialwesen)","id":"BE-15822","address":"Halemweg 22, 13627 Berlin","website":"http://www.anna-freud-osz.de","email":"post@anna-freud-osz.de","school_type":"Berufsfachschule","legal_status":1,"fax":"364178-20","phone":"364178-10","director":"Hr. Alex","location":{"lat":"52.5380635","lon":"13.2876166"}},{"name":"1. Schulpraktisches Seminar Charlottenburg-Wilmersdorf","id":"BE-15823","address":"Kastanienallee 13, 14050 Berlin","email":"nelkner1u2spssek@t-online.de","school_type":"Schulpraktisches Seminar","legal_status":1,"fax":"9029280-78","phone":"9029280-77","director":"Hr. Koch","location":{"lat":"52.5133987","lon":"13.2695763"}},{"name":"Paul-Lincke-Grundschule","id":"BE-15824","address":"Pieskower Weg 39, 10409 Berlin","website":"http://www.paul-lincke.cidsnet.de","email":"paul-lincke-grundschule@gmx.de","school_type":"Grundschule","legal_status":1,"fax":"42850877","phone":"42850876","director":"Hr. Zeidler","location":{"lat":"52.54127675","lon":"13.4455431867893"}},{"name":"Gustav-Heinemann-Oberschule","id":"BE-15825","address":", undefined Berlin","email":"","school_type":"Integrierte Sekundarschule","legal_status":1,"fax":"","phone":"","director":""},{"name":"Katholische Schule Sankt Alfons (Grundschule)","id":"BE-15826","address":"Tennstedter Str. 1, 12249 Berlin","website":"http://www.kssa.de","email":"Alfons-Schule@gmx.net","school_type":"Grundschule","legal_status":1,"fax":"71581539","phone":"7111075","director":"Hr. Böhm","location":{"lat":"52.41665765","lon":"13.3514790254316"}},{"name":"Marienfelder Schule (Grundschule)","id":"BE-15827","address":"Erbendorfer Weg 13, 12279 Berlin","website":"http://www.marienfelder-gs.de","email":"sekretariat@marienfelder.schulen-ts.de","school_type":"Grundschule","legal_status":1,"fax":"902774-105","phone":"902774-104","director":"Fr. Fuchs","location":{"lat":"52.41174235","lon":"13.3522593078125"}},{"name":"Nahariya-Grundschule","id":"BE-15828","address":"Nahariyastr. 13-17, 12309 Berlin","website":"http://%09www.nahariyaschule.de","email":"sekretariat@nahariya.schulen-ts.de","school_type":"Grundschule","legal_status":1,"fax":"9027782-57","phone":"9027782-56","director":"Fr. Peters-Brose","location":{"lat":"52.3908105","lon":"13.4201514"}},{"name":"Grundschule am Dielingsgrund","id":"BE-15829","address":"Dielingsgrund 35, 12305 Berlin","website":"http://www.Grundschule-am-Dielingsgrund.de","email":"GrundschuleamDielingsgrund@t-online.de","school_type":"Grundschule","legal_status":1,"fax":"9027782-52","phone":"9027782-22","director":"Fr. Marx","location":{"lat":"52.41212625","lon":"13.4082128378352"}},{"name":"Ikarus-Grundschule","id":"BE-15830","address":"Körtingstr. 45, 12107 Berlin","website":"http://www.ikarus-grundschule.de","email":"07g37@07g37.schule.berlin.de","school_type":"Grundschule","legal_status":1,"fax":"90277-7463","phone":"90277-7459","director":"Hr. Bruch-Sinnwell","location":{"lat":"52.4335508","lon":"13.3836837"}},{"name":"Ulrich-von-Hutten-Gymnasium","id":"BE-15831","address":"Rehagener Str. 35-37, 12307 Berlin","website":"http://www.uvh-online.de","email":"uvh@uvh-online.de","school_type":"Gymnasien","legal_status":1,"fax":"9027782-40","phone":"9027782-44","director":"Hr. Hungs","location":{"lat":"52.3859016","lon":"13.403912025"}},{"name":"Katholische Schule Sankt Hildegard","id":"BE-15832","address":"Malteserstr. 171 A, 12277 Berlin","website":"http://www.kssh.cidsnet.de","email":"Sankt-Hildegard-Schule.cids@t-online.de","school_type":"Übrige Förderschwerpunkte","legal_status":1,"fax":"72320003","phone":"7213090","director":"Fr. Reuer","location":{"lat":"52.4199224","lon":"13.3591476"}},{"name":"Paulsen-Gymnasium","id":"BE-15833","address":"Gritznerstr. 57, 12163 Berlin","website":"http://www.paulsengymnasium.de","email":"paulsengymnasium@pg-berlin.de","school_type":"Gymnasien","legal_status":1,"fax":"79742540","phone":"79742530","director":"Fr. van Rinsum","location":{"lat":"52.46141465","lon":"13.3146820131594"}},{"name":"Steinwald-Schule","id":"BE-15834","address":"Hanielweg 7-9, 12277 Berlin","website":"http://www.steinwald-schule.de","email":"\trektorin@steinwald.schulen-ts.de","school_type":"Förderschwerp.\"Geistige Entwicklung\"","legal_status":1,"fax":"9027741-40","phone":"9027741-39","director":"Fr. Rädler","location":{"lat":"52.4207997","lon":"13.3606758"}},{"name":"Carl-Zeiss-Schule","id":"BE-15835","address":"Barnetstr. 12-14, 12305 Berlin","website":"http://www.carl-zeiss-oberschule.de","email":"sekretariat@carl-zeiss-oberschule.de","school_type":"Integrierte Sekundarschule","legal_status":1,"fax":"902778-209","phone":"902778-206","director":"Hr. Dr. Zapfe","location":{"lat":"52.394763","lon":"13.4044671921858"}},{"name":"4. Schulpraktisches Seminar Steglitz-Zehlendorf","id":"BE-15836","address":"Immenweg 6, 12169 Berlin","website":"sekretariat2@spsbb.be.lo-net2.de","email":"seminar.ifli.4.sps@t-online.de","school_type":"Schulpraktisches Seminar","legal_status":1,"fax":"422634-24","phone":"422634-20","director":"Fr. Ifli","location":{"lat":"52.45278415","lon":"13.3462894983398"}},{"name":"Maria-Montessori-Grundschule","id":"BE-15837","address":"Friedrich-Wilhelm-Str. 72-74, 12103 Berlin","website":"http://www.mmg-online.de","email":"sekretariat@montessori.schulen-ts.de","school_type":"Grundschule","legal_status":1,"fax":"902772226","phone":"902772661","director":"Fr. Lerner","location":{"lat":"52.4580907","lon":"13.3808002611511"}},{"name":"Grundschule auf dem Tempelhofer Feld","id":"BE-15838","address":"Schulenburgring 7-11, 12101 Berlin","website":"http://www.GS-TempelhoferFeld.cidsnet.de","email":"tempelhofer_feld@schulen-tempelhof-schoeneberg.de","school_type":"Grundschule","legal_status":1,"fax":"902772-602","phone":"902772-664","director":"Hr. Garbe","location":{"lat":"52.4831564","lon":"13.3829226"}},{"name":"Paul-Klee-Grundschule","id":"BE-15839","address":"Konradinstr. 15-17, 12105 Berlin","website":"http://www.paul-klee-schule.de","email":"pks.schule@gmx.net","school_type":"Grundschule","legal_status":1,"fax":"902772698","phone":"902772662","director":"Fr. Leppin","location":{"lat":"52.4544559","lon":"13.3767537"}},{"name":"Bruno-H.-Bürgel-Grundschule","id":"BE-15840","address":"Rackebüller Weg 70, 12305 Berlin","website":"http://www.bruno-h-buergel.schule-berlin.net","email":"sekretariat@bhb.schulen-ts.de","school_type":"Grundschule","legal_status":1,"fax":"902778-251","phone":"902778-250","director":"Hr. Otte","location":{"lat":"52.40446295","lon":"13.4014850314072"}},{"name":"Max-von-Laue-Schule","id":"BE-15841","address":"Dürerstr. 27, 12203 Berlin","website":"http://www.Max-von-Laue-Schule.de","email":"MvL-Berlin.Schulleitung@t-online.de","school_type":"Integrierte Sekundarschule","legal_status":1,"fax":"84414928","phone":"84414920","director":"Fr. Bothmann","location":{"lat":"52.43646","lon":"13.3059281099483"}},{"name":"Beethoven-Oberschule","id":"BE-15842","address":"Barbarastr. 9, 12249 Berlin","website":"http://www.beethoven-oberschule.de","email":"Leitung@beethoven-oberschule.de","school_type":"Gymnasien","legal_status":1,"fax":"768905-41","phone":"768905-30","director":"Fr. Dr. Neukirchen","location":{"lat":"52.43288295","lon":"13.3427414621399"}},{"name":"Ludwig-Heck-Grundschule","id":"BE-15843","address":"Königstr. 32, 12105 Berlin","website":"http://www.ludwig-heck-grundschule.de","email":"sekretariat@heck.schulen-ts.de","school_type":"Grundschule","legal_status":1,"fax":"902777506","phone":"902777461","director":"Fr. Kähler-Schubert","location":{"lat":"52.4472031","lon":"13.3839181"}},{"name":"Hermann-Ehlers-Gymnasium","id":"BE-15844","address":"Elisenstr. 3-4, 12169 Berlin","website":"http://www.hermann-ehlers-schule.de","email":"hes@hermann-ehlers-schule.de","school_type":"Gymnasien","legal_status":1,"fax":"9029923-63","phone":"9029923-53","director":"Fr. Vogler","location":{"lat":"52.4534288","lon":"13.3338016"}},{"name":"Pestalozzi-Fröbel-Haus","id":"BE-15845","address":"Karl-Schrader-Str. 7-8, 10781 Berlin","website":"http://www.pfh-berlin.de","email":"schulleitung@pfh-berlin.de","school_type":"Fachschule","legal_status":1,"fax":"21730-188","phone":"21730-242","director":"Fr. Lauffer","location":{"lat":"52.49144615","lon":"13.352628694458"}},{"name":"Pestalozzi-Fröbel-Haus","id":"BE-15846","address":"Karl-Schrader-Str. 7-8, 10781 Berlin","website":"http://www.pfh-berlin.de","email":"schulleitung@pfh-berlin.de","school_type":"Fachoberschule","legal_status":1,"fax":"21730-188","phone":"21730-242","director":"Fr. Lauffer","location":{"lat":"52.49144615","lon":"13.352628694458"}},{"name":"Lette-Verein Stiftung des öffentlichen Rechts","id":"BE-15847","address":"Viktoria-Luise-Platz 6, 10777 Berlin","website":"http://www.lette-verein.de","email":"info@lette-verein.de","school_type":"Fachschule","legal_status":1,"fax":"21994-241","phone":"21994-0","director":"Hr. Forstmann","location":{"lat":"52.496054","lon":"13.3413114"}},{"name":"Lette-Verein Stiftung des öffentlichen Rechts","id":"BE-15848","address":"Viktoria-Luise-Platz 6, 10777 Berlin","website":"http://www.lette-verein.de","email":"info@lette-verein.de","school_type":"Berufsfachschule","legal_status":1,"fax":"21994-241","phone":"21994-0","director":"Hr. Forstmann","location":{"lat":"52.496054","lon":"13.3413114"}},{"name":"Lette-Verein Stiftung des öffentlichen Rechts","id":"BE-15849","address":"Viktoria-Luise-Platz 6, 10777 Berlin","website":"http://www.lette-verein.de","email":"info@lette-verein.de","school_type":"Berufsschule","legal_status":1,"fax":"21994-241","phone":"21994-0","director":"Hr. Forstmann","location":{"lat":"52.496054","lon":"13.3413114"}},{"name":"Sophie-Scholl-Schule","id":"BE-15850","address":", undefined Berlin","email":"","school_type":"Integrierte Sekundarschule","legal_status":1,"fax":"","phone":"","director":""},{"name":"Prignitz-Schule","id":"BE-15851","address":"Pöppelmannstr. 2, 12157 Berlin","website":"http://www.prignitz.cidsnet.de","email":"prignitz-schule@web.de","school_type":"Förderschwerp.\"Lernen\"","legal_status":1,"fax":"902774538","phone":"902776932","director":"Fr. Scupin","location":{"lat":"52.46879925","lon":"13.3451055500586"}},{"name":"SchuleEins (Gemeinschaftsschule)","id":"BE-15852","address":", undefined Berlin","email":"","school_type":"Integrierte Sekundarschule","legal_status":1,"fax":"","phone":"","director":""},{"name":"Com Fly German Flight Training Organisation GmbH","id":"BE-15853","address":"Hohenzollerndamm 53, 14199 Berlin","website":"http://www.pilotenausbildung.net/com-fly-german-flight-training-organisation-gmbh/","email":"","school_type":"Sonstige Ergänzungsschule","legal_status":1,"fax":"","phone":"8236446","director":"Hr. Carino","location":{"lat":"52.4870744","lon":"13.2983494"}},{"name":"Marie-Elisabeth-Lüders-Oberschule","id":"BE-15854","address":"Steinmetzstr. 79, 10783 Berlin","website":"http://www.melo-berlin.de","email":"sekretariat@melo-berlin.de","school_type":"Fachoberschule","legal_status":1,"fax":"263916-72","phone":"263916-60","director":"Fr. Dr. Schlicht","location":{"lat":"52.49873255","lon":"13.3648461686825"}},{"name":"Marie-Elisabeth-Lüders-Oberschule","id":"BE-15855","address":"Steinmetzstr. 79, 10783 Berlin","website":"http://www.melo-berlin.de","email":"sekretariat@melo-berlin.de","school_type":"Berufsfachschule","legal_status":1,"fax":"263916-72","phone":"263916-60","director":"Fr. Dr. Schlicht","location":{"lat":"52.49873255","lon":"13.3648461686825"}},{"name":"Marie-Elisabeth-Lüders-Oberschule","id":"BE-15856","address":"Steinmetzstr. 79, 10783 Berlin","website":"http://www.melo-berlin.de","email":"sekretariat@melo-berlin.de","school_type":"Fachschule","legal_status":1,"fax":"263916-72","phone":"263916-60","director":"Fr. Dr. Schlicht","location":{"lat":"52.49873255","lon":"13.3648461686825"}},{"name":"Marie-Elisabeth-Lüders-Oberschule","id":"BE-15857","address":"Steinmetzstr. 79, 10783 Berlin","website":"http://www.melo-berlin.de","email":"sekretariat@melo-berlin.de","school_type":"Berufsschule","legal_status":1,"fax":"263916-72","phone":"263916-60","director":"Fr. Dr. Schlicht","location":{"lat":"52.49873255","lon":"13.3648461686825"}},{"name":"Kolleg Schöneberg","id":"BE-15858","address":"Nürnberger Str. 63, 10787 Berlin","website":"http://www.KollegSchoeneberg.de","email":"Sekretariat@KollegSchoeneberg.de","school_type":"Volkshochschul-Kolleg","legal_status":1,"fax":"902776926","phone":"902774391","director":"Fr. Beyenbach","location":{"lat":"52.5033927","lon":"13.3411059"}},{"name":"Volkshochschule Tempelhof-Schöneberg","id":"BE-15859","address":"Offenbacher Str. 5 A, 14197 Berlin","website":"http://www.vhs-tempelhof-schoeneberg.de","email":"zbw-vhs.t-s@web.de","school_type":"Volkshochschule","legal_status":1,"fax":"902776846","phone":"902774321","director":"komm. Hr. Fleischer","location":{"lat":"52.4750992","lon":"13.3199273"}},{"name":"Katholische Schule Sankt Franziskus (Integrierte Sekundarschule)","id":"BE-15860","address":"Hohenstaufenstr. 2, 10781 Berlin","website":"http://www.franziskusschule-berlin.de","email":"sekretariat@franziskusschule-berlin.de","school_type":"Integrierte Sekundarschule","legal_status":1,"fax":"2163512","phone":"2163565","director":"Hr. Schröder","location":{"lat":"52.4950473","lon":"13.3532521"}},{"name":"SAE Institute Berlin","id":"BE-15861","address":"Soltauer Str. 18-22, 13509 Berlin","website":"http://www.sae.edu","email":"saeberlin@saecollege.de","school_type":"Sonstige Ergänzungsschule","legal_status":1,"fax":"4309447299","phone":"43094470","director":"Hr. Kraemer","location":{"lat":"52.57868385","lon":"13.3058342178201"}},{"name":"Klosterfeld-Grundschule","id":"BE-15862","address":"Seegefelder Str. 125, 13583 Berlin","website":"http://www.klosterfeld-grundschule.de","email":"klosterfeld.grundschule@gmail.com","school_type":"Grundschule","legal_status":1,"fax":"3789904-44","phone":"3789904-0","director":"Fr. Niekisch","location":{"lat":"52.5383876","lon":"13.1797174880636"}},{"name":"Christoph-Földerich-Grundschule","id":"BE-15863","address":"Földerichplatz 5, 13595 Berlin","website":"http://www.foelle.schule-berlin.net","email":"chr.foelderich.schule.cids@t-online.de","school_type":"Grundschule","legal_status":1,"fax":"3620853-24","phone":"3620853-0","director":"Hr. John","location":{"lat":"52.5203048","lon":"13.1930269"}},{"name":"Siegerland-Grundschule","id":"BE-15864","address":", undefined Berlin","email":"","school_type":"Grundschule","legal_status":1,"fax":"","phone":"","director":""},{"name":"Arno-Fuchs-Schule","id":"BE-15865","address":"Richard-Wagner-Str. 30, 10585 Berlin","website":"http://www.arno-fuchs-schule.cidsnet.de","email":"afs-stowasser@t-online.de","school_type":"Förderschwerp.\"Geistige Entwicklung\"","legal_status":1,"fax":"902913259","phone":"902913250","director":"Fr. Stowasser-Gutkuhn","location":{"lat":"52.51462215","lon":"13.3076726587465"}},{"name":"Reinfelder-Schule","id":"BE-15866","address":"Maikäferpfad 30, 14055 Berlin","website":"http://www.reinfelder-schule.de","email":"post@reinfelder-schule.de","school_type":"Übrige Förderschwerpunkte","legal_status":1,"fax":"902925064","phone":"902925050","director":"Fr. Rose-Fallisch","location":{"lat":"52.4967722","lon":"13.2635347"}},{"name":"Reinfelder-Schule","id":"BE-15867","address":"Maikäferpfad 30, 14055 Berlin","website":"http://www.reinfelder-schule.de","email":"post@reinfelder-schule.de","school_type":"Grundschule","legal_status":1,"fax":"902925064","phone":"902925050","director":"Fr. Rose-Fallisch","location":{"lat":"52.4967722","lon":"13.2635347"}},{"name":"Ernst-Adolf-Eschke-Schule für Gehörlose","id":"BE-15868","address":"Waldschulallee 29, 14055 Berlin","website":"http://www.eaeschule.de","email":"post@eaeschule.de","school_type":"Berufsschule mit sonderpäd. Aufgaben","legal_status":1,"fax":"902925033","phone":"902925000","director":"Hr. Möbius","location":{"lat":"52.4985314","lon":"13.265583"}},{"name":"Ernst-Adolf-Eschke-Schule für Gehörlose","id":"BE-15869","address":"Waldschulallee 29, 14055 Berlin","website":"http://www.eaeschule.de","email":"post@eaeschule.de","school_type":"Übrige Förderschwerpunkte","legal_status":1,"fax":"902925033","phone":"902925000","director":"Hr. Möbius","location":{"lat":"52.4985314","lon":"13.265583"}},{"name":"Ernst-Adolf-Eschke-Schule für Gehörlose","id":"BE-15870","address":"Waldschulallee 29, 14055 Berlin","website":"http://www.eaeschule.de","email":"post@eaeschule.de","school_type":"Berufsfachschule","legal_status":1,"fax":"902925033","phone":"902925000","director":"Hr. Möbius","location":{"lat":"52.4985314","lon":"13.265583"}},{"name":"Ernst-Adolf-Eschke-Schule für Gehörlose","id":"BE-15871","address":"Waldschulallee 29, 14055 Berlin","website":"http://www.eaeschule.de","email":"post@eaeschule.de","school_type":"Fachschule","legal_status":1,"fax":"902925033","phone":"902925000","director":"Hr. Möbius","location":{"lat":"52.4985314","lon":"13.265583"}},{"name":"arche medica-Akademie für Heilpraktiker","id":"BE-15872","address":"Handjerystr. 22, 12159 Berlin","website":"http://www.heilpraktiker-werden.de","email":"schule@arche-medica.de","school_type":"Heilpraktikerschule","legal_status":1,"fax":"8593392","phone":"8516838","director":"Hr. Barenbrügge","location":{"lat":"52.4736462","lon":"13.332504"}},{"name":"Kiepert-Grundschule","id":"BE-15873","address":"Prechtlstr. 21-23, 12277 Berlin","website":"%09http://www.kiepertgrundschule.de","email":"rektor@kiepert.schulen-ts.de","school_type":"Grundschule","legal_status":1,"fax":"902774-101","phone":"902774-100","director":"Hr. Schmidkunz","location":{"lat":"52.41589885","lon":"13.3733082657295"}},{"name":"Carl-Sonnenschein-Grundschule","id":"BE-15874","address":"Am Hellespont 4-6, 12109 Berlin","website":"http://www.carl-sonnenschein-gs.de","email":"schulleitung@carl-sonnenschein-gs.de","school_type":"Grundschule","legal_status":1,"fax":"7007679-29","phone":"7007679-10","director":"Hr. Brode","location":{"lat":"52.4442663","lon":"13.4087611"}},{"name":"Ludwig-Bechstein-Grundschule","id":"BE-15875","address":"Halbauer Weg 25, 12249 Berlin","website":"http://www.ludwig-bechstein-grundschule.net","email":"06G28@gmx.de","school_type":"Grundschule","legal_status":1,"fax":"766878-18","phone":"766878-0","director":"Fr. Bähnemann","location":{"lat":"52.4325163","lon":"13.3623853"}},{"name":"Mercator-Grundschule","id":"BE-15876","address":", undefined Berlin","email":"","school_type":"Grundschule","legal_status":1,"fax":"","phone":"","director":""},{"name":"2. Schulpraktisches Seminar Tempelhof-Schöneberg","id":"BE-15877","address":"Lutherstr. 18, 12305 Berlin","email":"sekretariat.sps.temp-scho@gmx.de","school_type":"Schulpraktisches Seminar","legal_status":1,"fax":"705507-819","phone":"705507-811","director":"Hr. Witte","location":{"lat":"52.3968181","lon":"13.4044217"}},{"name":"Paul-Natorp-Gymnasium","id":"BE-15878","address":"Goßlerstr. 13-15, 12161 Berlin","website":"http://www.paul-natorp-oberschule.de","email":"Paul-Natorp-Oberschule@web.de","school_type":"Gymnasien","legal_status":1,"fax":"902777-141","phone":"902777-921","director":"Hr. Fuß","location":{"lat":"52.4692793","lon":"13.3242381"}},{"name":"IFAG Institut für angewandte Gerontologie","id":"BE-15879","address":"Haubachstr. 8, 10585 Berlin","website":"http://www.ifag-berlin.de","email":"info@ifag-berlin.de","school_type":"Berufsfachschule","legal_status":1,"fax":"3482303","phone":"3415034","director":"Hr. Pongratz","location":{"lat":"52.5157282","lon":"13.3055423"}},{"name":"Islamische Grundschule","id":"BE-15880","address":"Boppstr. 4, 10967 Berlin","website":"http://www.islamische-grundschule.de","email":"igs.berlin@t-online.de","school_type":"Grundschule","legal_status":1,"fax":"69507861","phone":"69507860","director":"Fr. Petersen","location":{"lat":"52.4908696","lon":"13.4213724"}},{"name":"Freie Waldorfschule Kreuzberg","id":"BE-15881","address":"Ritterstr. 78, 10969 Berlin","website":"http://www.waldorfschule-kreuzberg.de","email":"info@waldorfschule-kreuzberg","school_type":"Freie Waldorfschule","legal_status":1,"fax":"6151010-19","phone":"6151010-0","director":"Hr. Bartzsch, Fr. Hüchtker","location":{"lat":"52.5032883","lon":"13.4020871246107"}},{"name":"Freie Waldorfschule Kreuzberg","id":"BE-15882","address":"Ritterstr. 78, 10969 Berlin","website":"http://www.waldorfschule-kreuzberg.de","email":"info@waldorfschule-kreuzberg","school_type":"Übrige Förderschwerpunkte","legal_status":1,"fax":"6151010-19","phone":"6151010-0","director":"Hr. Bartzsch, Fr. Hüchtker","location":{"lat":"52.5032883","lon":"13.4020871246107"}},{"name":"Fachschulen der Stiftung SPI Berlin","id":"BE-15883","address":"Hallesches Ufer 32-38, 10963 Berlin","website":"http://www.spi-fachschulen.de","email":"fachschulen@stiftung-spi.de","school_type":"Fachschule","legal_status":1,"fax":"2593739-50","phone":"2593739-0","director":"Fr. Dr. Hoppe","location":{"lat":"52.5026162","lon":"13.3759195"}},