[{"name":"Wulf-Isebrand-Schule","id":"SH-0702160","address":"Wulf-Isebrand-Straße 2, 25767 Albersdorf","school_type":"Grundschule","legal_status":1,"fax":"04835 - 977322","phone":"04835 - 97760","email":"","provider":"Schulverband Albersdorf","director":"Frau Wisch","location":{"lat":"54.14346715","lon":"9.28805906647356"}},{"name":"Arnesboken-Schule","id":"SH-0707353","address":"Gartenweg 8 a, 23623 Ahrensbök","school_type":"Gemeinschaftsschule ohne Oberstufe","legal_status":1,"fax":"04525 - 8978","phone":"04525 - 492430","email":"gs.sarau@gmx.de","provider":"Gemeinde Ahrensbök","director":"Frau Rönnfeldt","location":{"lat":"54.0100981","lon":"10.5711546"}},{"name":"Woldenhorn-Schule","id":"SH-0703757","address":"Schulstraße 13, 22926 Ahrensburg","school_type":"FöZ mit dem SP geistige Entwicklung","legal_status":1,"fax":"04102 - 44760","phone":"04102 - 42422","provider":"Kreis Stormarn","director":"Herr Rohwedder"},{"name":"Fritz-Reuter-Schule","id":"SH-0703750","address":"Fritz-Reuter-Straße 51 - 53, 22926 Ahrensburg","school_type":"FöZ mit dem SP Lernen","legal_status":1,"fax":"04102 - 517020","phone":"04102 - 51700","provider":"Stadt Ahrensburg","director":"Frau Grotzsch","location":{"lat":"53.6742604","lon":"10.228222"}},{"name":"Selma-Lagerlöf-Gemeinschaftsschule Ahrensburg mit Oberstufe","id":"SH-0707714","address":"Wulfsdorfer Weg 71, 22926 Ahrensburg","school_type":"Gemeinschaftsschule mit Oberstufe","legal_status":1,"fax":"04102 - 880519","phone":"04102 - 51700","email":"","provider":"Stadt Ahrensburg","director":"Herr Jakobi","location":{"lat":"53.6719673","lon":"10.2179575"}},{"name":"Eric-Kandel-Gymnasium Ahrensburg","id":"SH-0705755","address":"Reesenbüttler Redder 4 - 10, 22926 Ahrensburg","school_type":"Gymnasium","legal_status":1,"fax":"04102 - 478417","phone":"04102 - 478430","provider":"Stadt Ahrensburg","director":"Herr Burmeister","location":{"lat":"53.6788517","lon":"10.2200199"}},{"name":"Grundschule Am Reesenbüttel","id":"SH-0702941","address":"Schimmelmannstraße 46, 22926 Ahrensburg","school_type":"Grundschule","legal_status":1,"fax":"04102 - 887676","phone":"04102 - 88760","provider":"Stadt Ahrensburg","director":"Frau Knuth","location":{"lat":"53.6750655","lon":"10.2162093"}},{"name":"Grundschule Am Hagen","id":"SH-0702940","address":"Dänenweg 13, 22926 Ahrensburg","school_type":"Grundschule","legal_status":1,"fax":"04102 - 57677","phone":"04102 - 57666","provider":"Stadt Ahrensburg","director":"Frau Thun","location":{"lat":"53.6420944","lon":"10.2168778861563"}},{"name":"Stormarnschule","id":"SH-0705750","address":"Waldstraße 14, 22926 Ahrensburg","school_type":"Gymnasium","legal_status":1,"fax":"04102 - 880330","phone":"04102 - 88030","provider":"Stadt Ahrensburg","director":"Frau Dr. Witte","location":{"lat":"53.6686011","lon":"10.240422401148"}},{"name":"Grundschule Am Schloß","id":"SH-0702942","address":"Schulstraße 4, 22926 Ahrensburg","school_type":"Grundschule","legal_status":1,"fax":"04102 - 471418","phone":"04102 - 471417","provider":"Stadt Ahrensburg","director":"Herr Lehmann","location":{"lat":"53.6787445","lon":"10.2381324823729"}},{"name":"Grundschule Am Aalfang","id":"SH-0702986","address":"Ahrensfelder Weg 43, 22926 Ahrensburg","school_type":"Grundschule","legal_status":1,"fax":"04102 - 57526","phone":"04102 - 57595","provider":"Stadt Ahrensburg","director":"Frau Schirrmacher","location":{"lat":"53.6594613","lon":"10.242894"}},{"name":"Berufliche Schule des Kreises Stormarn in Ahrensburg","id":"SH-0706707","address":"Hermann-Löns-Straße 38, 22926 Ahrensburg","school_type":"Berufsbildende Schule","legal_status":1,"fax":"04102 - 678331","phone":"04102 - 67830","provider":"Kreis Stormarn","director":"Herr Steußloff","location":{"lat":"53.679188","lon":"10.2302304339174"}},{"name":"Helene-Dieckmann-Schule","id":"SH-0703558","address":"Klausdorfer Straße 74, 24161 Altenholz","school_type":"FöZ mit dem SP Lernen","legal_status":1,"fax":"0431 - 2404437","phone":"0431 - 328425","provider":"Gemeinde Altenholz","director":"Frau Hoff-Klinck","location":{"lat":"54.40637885","lon":"10.1244555480375"}},{"name":"Grundschule Alveslohe","id":"SH-0702805","address":"Bahnhofstraße 4, 25486 Alveslohe","school_type":"Grundschule","legal_status":1,"fax":"04193 - 2285","phone":"04193 - 762906","provider":"Gemeinde Alvesloe","director":"Frau Speck"},{"name":"Gemeinschaftsschule der Gemeinde Altenholz in Altenholz","id":"SH-0707514","address":"Danziger Straße 18 c, 24161 Altenholz","school_type":"Gemeinschaftsschule ohne Oberstufe","legal_status":1,"fax":"0431 - 26096110","phone":"0431 - 2406116","email":"","provider":"Gemeinde Altenholz","director":"Herr Haß","location":{"lat":"54.3839326","lon":"10.1313342"}},{"name":"Gymnasium Altenholz","id":"SH-0705553","address":"Danziger Straße 18 a, 24161 Altenholz","school_type":"Gymnasium","legal_status":1,"fax":"0431 - 54028624","phone":"0431 - 5402860","provider":"Gemeinde Altenholz","director":"Frau Hörsting","location":{"lat":"54.3839326","lon":"10.1313342"}},{"name":"Theodor-Storm-Schule","id":"SH-0707709","address":"Olivet-Allee 15, 23843 Bad Oldesloe","school_type":"Gemeinschaftsschule ohne Oberstufe","legal_status":1,"fax":"04531 - 504664","phone":"04531 - 504660","provider":"Stadt Bad Oldesloe","director":"Frau Richter-Conrad","location":{"lat":"53.80656055","lon":"10.3653103863821"}},{"name":"Trave-Schule","id":"SH-0703649","address":"Burgfeldstraße 104, 23795 Bad Segeberg","school_type":"FöZ mit dem SP geistige Entwicklung","legal_status":1,"fax":"04551 - 93766","phone":"04551 - 90861713","provider":"Kreis Segeberg","director":"Frau Sommer","location":{"lat":"53.9257413","lon":"10.2901235"}},{"name":"Grundschule Bargenstedt-Schafstedt","id":"SH-0702162","address":"Klintweg 7, 25704 Bargenstedt","school_type":"Grundschule","legal_status":1,"fax":"04832 - 6006027","phone":"04832 - 1464","provider":"Schulverband Meldorf","director":"Frau Nissen","location":{"lat":"54.09604465","lon":"9.15331314263171"}},{"name":"Franz-Claudius-Schule","id":"SH-0703651","address":"Falkenburger Straße 94, 23795 Bad Segeberg","school_type":"FöZ mit dem SP Lernen","legal_status":1,"fax":"04551 - 961419","phone":"04552 - 9933390","email":"grund-und-gemeinschaftsschule.leezen@schule.landsh.de","provider":"Schulverband Bad Segeberg","director":"Frau Braren","location":{"lat":"53.9307296","lon":"10.2972702"}},{"name":"Schule am Burgfeld","id":"SH-0707604","address":"Falkenburger Str. 94 a, 23795 Bad Segeberg","school_type":"Gemeinschaftsschule mit Oberstufe","legal_status":1,"fax":"04551 - 961820","phone":"04551 - 96180","provider":"Schulverband Bad Segeberg","director":"Herr Falkenhagen","location":{"lat":"53.9307296","lon":"10.2972702"}},{"name":"Gemeinschaftsschule am Seminarweg","id":"SH-0707603","address":"Seminarweg 5, 23795 Bad Segeberg","school_type":"Gemeinschaftsschule ohne Oberstufe","legal_status":1,"fax":"004551 - 961920","phone":"004551 - 96190","provider":"Stadt Bad Segeberg","director":"Frau Koop-Lehmann","location":{"lat":"53.9362204","lon":"10.3071293"}},{"name":"Dahlmannschule","id":"SH-0705653","address":"Am Markt 4, 23795 Bad Segeberg","school_type":"Gymnasium","legal_status":1,"fax":"04551 - 961620","phone":"04551 - 96160","provider":"Stadt Bad Segeberg","director":"Frau Degenhardt"},{"name":"Städtisches Gymnasium Segeberg","id":"SH-0705655","address":"Hamburger Straße 29 a, 23795 Bad Segeberg","school_type":"Gymnasium","legal_status":1,"fax":"04551 - 961520","phone":"04551 - 96150","provider":"Stadt Bad Segeberg","director":"Herr Bähr","location":{"lat":"53.9345543","lon":"10.2903117"}},{"name":"Theodor-Storm-Schule","id":"SH-0702883","address":"Theodor-Storm-Straße 18 a, 23795 Bad Segeberg","school_type":"Grundschule","legal_status":1,"fax":"04551 - 962518","phone":"04551 - 96250","provider":"Schulverband Bad Segeberg","director":"Frau Wolf","location":{"lat":"53.9329038","lon":"10.2964719"}},{"name":"Heinrich-Rantzau-Schule","id":"SH-0702808","address":"Schillerstraße 17, 23795 Bad Segeberg","school_type":"Grundschule","legal_status":1,"fax":"04551 - 961720","phone":"04551 - 96170","provider":"Schulverband Bad Segeberg","director":"Frau Look"},{"name":"Schule am Papenmoor -FöZ-","id":"SH-0703413","address":"Am Kirchhof 10, 23611 Bad Schwartau","school_type":"FöZ mit dem SP geistige Entwicklung","legal_status":1,"fax":"0451 - 2036330","phone":"0451 - 23236","provider":"Kreis Ostholstein","director":"Frau Besser","location":{"lat":"53.9234931","lon":"10.6802957"}},{"name":"Berufsbildungszentrum Bad Segeberg","id":"SH-0706666","address":"Theodor-Storm-Straße 9 - 11, 23795 Bad Segeberg","school_type":"Berufsbildende Schule","legal_status":1,"fax":"04551 - 9631-59","phone":"04551 - 959825","email":"info@bbz-se.de","provider":"Kreis Segeberg","director":"Herr Sandbrink","location":{"lat":"53.93240255","lon":"10.3044919099162"}},{"name":"Schule am Hochkamp -FöZ-","id":"SH-0703400","address":"Am Hochkamp, 23611 Bad Schwartau","school_type":"FöZ mit dem SP Lernen","legal_status":1,"fax":"0451 - 2900574","phone":"0451 - 20007150","provider":"Schulverband Bad Schwartau","director":"Herr Wiezorek","location":{"lat":"53.9215027","lon":"10.6936097"}},{"name":"Grundschule des Schulverbandes Blekendorf in Blekendorf - Ostseeschule","id":"SH-0702567","address":"Radeberg 20, 24327 Blekendorf","school_type":"Grundschule","legal_status":1,"fax":"04381 - 7620","phone":"04383 - 781","email":"ostseeschule.blekendorf@schule.landsh.de","provider":"Schulverband Blekendorf","director":"Frau Schultz","location":{"lat":"54.2834904","lon":"10.6562275"}},{"name":"Grund- und Gemeinschaftsschule Stecknitz","id":"SH-0707251","address":"Berliner Straße 20, 23919 Berkenthin","school_type":"Gemeinschaftsschule ohne Oberstufe","legal_status":1,"fax":"04544 - 430","phone":"04508 - 257","email":"ggs-stecknitz.berkenthin@schule.landsh.de","provider":"Schulverband an der Stecknitz Berkenthin-Krummesse","director":"Frau Schulze","location":{"lat":"53.7314908","lon":"10.6404131"}},{"name":"Erich Kästner Gemeinschaftsschule Barsbüttel mit Oberstufe","id":"SH-0707719","address":"Soltausredder 28, 22885 Barsbüttel","school_type":"Gemeinschaftsschule mit Oberstufe","legal_status":1,"fax":"040 - 67085829","phone":"040 - 6708580","provider":"Gemeinde Barsbüttel","director":"Herr Schöß-Marquardt","location":{"lat":"53.57463955","lon":"10.1636931207817"}},{"name":"Grundschule Burg","id":"SH-0702169","address":"Bahnhofstraße 33, 25712 Burg (Dithmarschen)","school_type":"Grundschule","legal_status":1,"fax":"04825 - 923324","phone":"04825 - 2249","provider":"Amt Burg - St. Michaelisdonn","director":"Herr Rohweder","location":{"lat":"54.00158025","lon":"9.25847018200415"}},{"name":"Dalbek-Schule Börnsen","id":"SH-0702277","address":"Hamfelderedder 17, 21039 Börnsen","school_type":"Grundschule","legal_status":1,"fax":"040 - 739243229","phone":"040 - 73924320","provider":"Gemeinde Börnsen","director":"Frau Oldenburg","location":{"lat":"53.474665","lon":"10.2882565556089"}},{"name":"Richard-Vosgerau-Schule","id":"SH-0702649","address":"Bergstraße 26, 24340 Eckernförde","school_type":"Grundschule","legal_status":1,"fax":"04351 - 7265850","phone":"04351 - 726580","provider":"Stadt Eckernförde","director":"Frau Köpke","location":{"lat":"54.4775887","lon":"9.8398899254887"}},{"name":"Grundschule Dänischenhagen","id":"SH-0702644","address":"Schulstraße 13, 24229 Dänischenhagen","school_type":"Grundschule","legal_status":1,"fax":"04349 - 913528","phone":"04349 - 270","provider":"Schulverband \"Küste dänischer Wohld\"","director":"Frau Meißner","location":{"lat":"54.4252978","lon":"10.1254652"}},{"name":"Gorch-Fock-Schule","id":"SH-0702742","address":"Sauerstraße 16, 24340 Eckernförde","school_type":"Grundschule","legal_status":1,"fax":"04351 - 7695950","phone":"04351 - 769590","provider":"Stadt Eckernförde","director":"Frau Marquardt","location":{"lat":"54.447564","lon":"9.8410638"}},{"name":"Eiderschule","id":"SH-0702218","address":"Schulstraße 18, 25786 Dellstedt","school_type":"Grundschule","legal_status":1,"fax":"04802 - 751528","phone":"04803 - 366","email":"eiderschule.dellstedt@schule.landsh.de","provider":"Amt KLG Eider","director":"Herr Christiansen","location":{"lat":"54.23479135","lon":"9.37377293155779"}},{"name":"Grundschule des Schulverbandes Mittleres Nordfriesland in Drelsdorf mit  Außenstelle in Joldelund - Lüttschool Drelsdorf-Joldelund","id":"SH-0702333","address":"Karkenweg 22, 25853 Drelsdorf","school_type":"Grundschule","legal_status":1,"fax":"04671 - 1008","phone":"04673 - 415","email":"luettschool.drelsdorf@schule.landsh.de","provider":"Schulverband Mittleres Nordfriesland","director":"Frau Ehler","location":{"lat":"54.6034563","lon":"9.0406428"}},{"name":"Alfried-Otto-Schule","id":"SH-0702281","address":"Bornweg 18, 21521 Dassendorf","school_type":"Grundschule","legal_status":1,"fax":"04104 - 690929","phone":"04104 - 69090","provider":"Schulverband Dassendorf-Brunstorf-Hohenhorn","director":"Frau Biesenack","location":{"lat":"53.4931377","lon":"10.3554887688656"}},{"name":"Gemeinschaftsschule des Amtes Pinnau in Bönningstedt","id":"SH-0707406","address":"Ellerbeker Straße 25, 25474 Bönningstedt","school_type":"Gemeinschaftsschule ohne Oberstufe","legal_status":1,"fax":"040 - 55604034","phone":"040 - 5560400","provider":"Amt Pinnau","director":"Frau Hinrichsen","location":{"lat":"53.6628962","lon":"9.9005363"}},{"name":"Helen-Keller-Schule","id":"SH-0703565","address":"Passatring 4, 24351 Damp","school_type":"FöZ mit dem SP körperliche und motorische Entwicklung","legal_status":1,"fax":"04352 - 808355","phone":"04352 - 808324","provider":"Land Schleswig-Holstein","director":"Frau Dietrich","location":{"lat":"54.5798706","lon":"10.01938686202"}},{"name":"Grundschule der Gemeinde Bönebüttel in Bönebüttel","id":"SH-0702581","address":"Plöner Chaussee, 24620 Bönebüttel","school_type":"Grundschule","legal_status":1,"fax":"04321 - 6022056","phone":"04394 - 275","email":"","provider":"Gemeinde Bönebüttel","director":"Frau Jordt","location":{"lat":"54.070844","lon":"10.0423505"}},{"name":"Auenwaldschule","id":"SH-0707566","address":"Stolker Straße 4, 24860 Böklund","school_type":"Gemeinschaftsschule ohne Oberstufe","legal_status":1,"fax":"04623 - 180285","phone":"04623 - 180280","provider":"Schulverband Böklund-Auenwaldschule","director":"Frau Westphal","location":{"lat":"54.6026285","lon":"9.5786381"}},{"name":"Grundschule Bönningstedt","id":"SH-0702488","address":"Kieler Straße 118, 25474 Bönningstedt","school_type":"Grundschule","legal_status":1,"fax":"040 - 471-443","phone":"040 - 5566030","provider":"Gemeinde Bönningstedt","director":"Frau Meyn-Schneider","location":{"lat":"53.6779466","lon":"9.9051841"}},{"name":"Auenwaldschule Grundschule Böklund","id":"SH-0702751","address":"Stolker Straße 4, 24860 Böklund","school_type":"Grundschule","legal_status":1,"fax":"04623 - 180285","phone":"04623 - 180280","provider":"Schulverband Böklund-Auenwaldschule","director":"Frau Juhasz","location":{"lat":"54.6026285","lon":"9.5786381"}},{"name":"Anne-Frank-Gemeinschaftsschule","id":"SH-0707408","address":"Binsenweg 1, 25337 Elmshorn","school_type":"Gemeinschaftsschule ohne Oberstufe","legal_status":1,"fax":"04121 - 791619","phone":"04121 - 9089028","email":"anne-frank-gemeinschaftsschule.elmshorn@schule.landsh.de","provider":"Stadt Elmshorn","director":"Frau Schramm","location":{"lat":"53.75326995","lon":"9.69029549525771"}},{"name":"Bismarckschule Elmshorn","id":"SH-0705450","address":"Bismarckstraße 2, 25335 Elmshorn","school_type":"Gymnasium","legal_status":1,"fax":"04121 - 90840125","phone":"04121 - 9084010","provider":"Stadt Elmshorn","director":"Herr Rosteck","location":{"lat":"53.7559979","lon":"9.65367453083816"}},{"name":"Elsa-Brändström-Schule","id":"SH-0705451","address":"Zum Krückaupark 7, 25337 Elmshorn","school_type":"Gymnasium","legal_status":1,"fax":"04121 - 436744","phone":"04121 - 43670","provider":"Stadt Elmshorn","director":"Herr Lorenzen","location":{"lat":"53.7578907","lon":"9.67357850618098"}},{"name":"Grundschule Fleckeby","id":"SH-0702654","address":"Am Holm 2, 24357 Fleckeby","school_type":"Grundschule","legal_status":1,"fax":"04354 - 1011","phone":"04354 - 376","provider":"Schulverband Fleckeby","director":"Frau Jansen","location":{"lat":"54.4833999","lon":"9.70419133880051"}},{"name":"Grundschule des Amtes Achterwehr in Felde","id":"SH-0702652","address":"Dorfstraße 93, 24242 Felde","school_type":"Grundschule","legal_status":1,"fax":"04340 - 402563","phone":"04305 - 758","email":"grundschule.felde@schule.landsh.de","provider":"Amt Achterwehr","director":"Frau Steines","location":{"lat":"54.2987579","lon":"9.9313063"}},{"name":"Gemeinschaftsschule Flensburg-West","id":"SH-0707003","address":"Friesische Lücke 7, 24937 Flensburg","school_type":"Gemeinschaftsschule ohne Oberstufe","legal_status":1,"fax":"0461 - 851728","phone":"0461 - 852538","provider":"Stadt Flensburg","director":"Herr Arp","location":{"lat":"54.7765027","lon":"9.42151475881003"}},{"name":"Käte-Lassen-Schule","id":"SH-0707006","address":"Mommsenstraße 45, 24943 Flensburg","school_type":"Gemeinschaftsschule ohne Oberstufe","legal_status":1,"fax":"0461 - 851646","phone":"0461 - 852540","provider":"Stadt Flensburg","director":"Herr Sellmer","location":{"lat":"54.78818525","lon":"9.44986963599592"}},{"name":"Auguste-Viktoria-Schule","id":"SH-0705001","address":"Südergraben 34, 24937 Flensburg","school_type":"Gymnasium","legal_status":1,"fax":"0461 - 851718","phone":"0461 - 852048","provider":"Stadt Flensburg","director":"Herr Dr. Eckert","location":{"lat":"54.78277835","lon":"9.43124092807634"}},{"name":"Altes Gymnasium","id":"SH-0705000","address":"Selckstraße 1, 24937 Flensburg","school_type":"Gymnasium","legal_status":1,"fax":"0461 - 851726","phone":"0461 - 852902","provider":"Stadt Flensburg","director":"Herr Kindl","location":{"lat":"54.78867345","lon":"9.42842004091911"}},{"name":"Fördegymnasium","id":"SH-0705002","address":"Elbestraße 10, 24943 Flensburg","school_type":"Gymnasium","legal_status":1,"fax":"0461 - 851645","phone":"0461 - 852507","email":"abendgymnasium.flensburg@schule.landsh.de","provider":"Stadt Flensburg","director":"Herr Höhnke","location":{"lat":"54.80231575","lon":"9.46534207150671"}},{"name":"Goethe-Schule","id":"SH-0705003","address":"Bismarckstraße 41, 24943 Flensburg","school_type":"Gymnasium","legal_status":1,"fax":"0461 - 851744","phone":"0461 - 852536","provider":"Stadt Flensburg","director":"Herr Reinke","location":{"lat":"54.7864618","lon":"9.44316893939076"}},{"name":"Schule auf der Rude","id":"SH-0702020","address":"Lundweg 30, 24941 Flensburg","school_type":"Grundschule","legal_status":1,"fax":"0461 - 851642","phone":"0461 - 852556","provider":"Stadt Flensburg","director":"Frau Steiner","location":{"lat":"54.77238525","lon":"9.42808614965174"}},{"name":"Falkenbergschule","id":"SH-0702021","address":"Emil-Nolde-Straße 31, 24937 Flensburg","school_type":"Grundschule","legal_status":1,"fax":"0461 - 851643","phone":"0461 - 852548","provider":"Stadt Flensburg","director":"Herr Fokuhl","location":{"lat":"54.78253755","lon":"9.40972648402761"}},{"name":"Waldschule","id":"SH-0702024","address":"Waldstraße 44, 24939 Flensburg","school_type":"Grundschule","legal_status":1,"fax":"0461 - 851725","phone":"0461 - 852545","provider":"Stadt Flensburg","director":"Herr Masuhr","location":{"lat":"54.7940988","lon":"9.41693642219104"}},{"name":"Hohlwegschule","id":"SH-0702022","address":"Glücksburger Straße 38 a, 24943 Flensburg","school_type":"Grundschule","legal_status":1,"fax":"0461 - 851724","phone":"0461 - 852587","provider":"Stadt Flensburg","director":"Frau Fenner","location":{"lat":"54.7850701","lon":"9.4477804"}},{"name":"Schule Ramsharde","id":"SH-0702023","address":"Bauer Landstraße 37-39, 24939 Flensburg","school_type":"Grundschule","legal_status":1,"fax":"0461 - 851751","phone":"0461 - 852541","provider":"Stadt Flensburg","director":"Frau Nissen","location":{"lat":"54.8020206","lon":"9.4208579"}},{"name":"Georg-Asmussen-Schule Gelting","id":"SH-0702238","address":"Norderholm 38, 24395 Gelting","school_type":"Grundschule","legal_status":1,"fax":"04643 - 183405","phone":"04643 - 183401","provider":"Amt Geltinger Bucht","director":"Frau Lorenzen","location":{"lat":"54.75066045","lon":"9.89999090538478"}},{"name":"Hachede-Schule","id":"SH-0703302","address":"Dialogweg 2, 21502 Geesthacht","school_type":"FöZ mit dem SP geistige Entwicklung","legal_status":1,"fax":"04152 - 849415","phone":"04152 - 84940","provider":"Kreis Herzogtum Lauenburg","director":"Frau Wolf","location":{"lat":"53.4436911","lon":"10.382090123596"}},{"name":"Förderschule Geesthacht","id":"SH-0703301","address":"Neuer Krug 33 - 35, 21502 Geesthacht","school_type":"FöZ mit dem SP Lernen","legal_status":1,"fax":"04152 - 83063","phone":"04152 - 918364","email":"schule1.geesthacht@helios-kliniken.de","provider":"Stadt Geesthacht","director":"Herr Müller","location":{"lat":"53.4373946","lon":"10.3663185"}},{"name":"Emil-von-Behring-Gymnasium","id":"SH-0705751","address":"Sieker Landstraße 203, 22927 Großhansdorf","school_type":"Gymnasium","legal_status":1,"fax":"04102 - 458623","phone":"04102 - 4586-0","provider":"Schulverband Großhansdorf","director":"Herr Kuske","location":{"lat":"53.646887","lon":"10.2759949"}},{"name":"Grundschule Wöhrendamm","id":"SH-0702956","address":"Wöhrendamm 59, 22927 Großhansdorf","school_type":"Grundschule","legal_status":1,"fax":"04102 - 62403","phone":"04102 - 63592","provider":"Schulverband Großhansdorf","director":"Herr Märcker","location":{"lat":"53.6612518","lon":"10.2841047318966"}},{"name":"Zentralschule Harrislee","id":"SH-0707555","address":"Alt Frösleer Weg 39, 24955 Harrislee","school_type":"Gemeinschaftsschule ohne Oberstufe","legal_status":1,"fax":"0461 - 9787129","phone":"0461 - 978710","provider":"Gemeinde Harrislee","director":"Herr Bethge","location":{"lat":"54.80525475","lon":"9.3931332471774"}},{"name":"Schulen am Moor","id":"SH-0702183","address":"Süderholmer Straße 65, 25746 Heide","school_type":"Grundschule","legal_status":1,"fax":"0481 - 7870257","phone":"0481 - 87267","email":"","provider":"Stadt Heide","director":"Herr Nissen","location":{"lat":"54.2028926","lon":"9.15655590097294"}},{"name":"Jens-Iwersen-Schule","id":"SH-0702348","address":"Nordseestraße, 25856 Hattstedt","school_type":"Grundschule","legal_status":1,"fax":"04846 - 1744","phone":"04846 - 236","provider":"Schulverband Hattstedt","director":"Frau Ebsen","location":{"lat":"54.5263871","lon":"9.0032333"}},{"name":"Grundschule Kieholm","id":"SH-0702257","address":"Raiffeisenstraße 14, 24376 Hasselberg","school_type":"Grundschule","legal_status":1,"fax":"04642 - 965082","phone":"04642 - 6121","provider":"Amt Geltinger Bucht","director":"Herr Koschnitzke","location":{"lat":"54.710559","lon":"9.94662280652351"}},{"name":"Peter-Lunding-Schule Grundschule Hasloh","id":"SH-0702508","address":"Schulstraße 21, 25474 Hasloh","school_type":"Grundschule","legal_status":1,"fax":"04106 - 626971","phone":"04106 - 2291","provider":"Gemeinde Hasloh","director":"Frau Fietz","location":{"lat":"53.69147905","lon":"9.91621728163156"}},{"name":"Grundschule Haseldorfer Marsch","id":"SH-0702507","address":"Kamperrege 1, 25489 Haseldorf","school_type":"Grundschule","legal_status":1,"fax":"04129 - 955985","phone":"04103 - 7029040","email":"grundschule-haseldorfer-marsch.haseldorf@schule.landsh.de","provider":"Amt Haseldorf","director":"Herr Kähler","location":{"lat":"53.64946035","lon":"9.61253645347501"}},{"name":"Gemeinschaftsschule mit Oberstufe mit Grundschulteil und Förderzentrum der Gemeinde Handewitt","id":"SH-0707552","address":"Alter Kirchenweg 38, 24983 Handewitt","school_type":"Gemeinschaftsschule mit Oberstufe","legal_status":1,"fax":"04608 - 900322","phone":"04630 - 498","email":"Gemeinschaftsschule.Handewitt@schule.landsh.de","provider":"Gemeinde Handewitt","director":"Frau Rothberg (komm.)","location":{"lat":"54.7687864","lon":"9.33044234608472"}},{"name":"Grundschule des Amtes Hohner Harde in Hamdorf","id":"SH-0702669","address":"Dorfstraße 8, 24805 Hamdorf","school_type":"Grundschule","legal_status":1,"fax":"04332 - 991236","phone":"04332 - 221","provider":"Amt Hohner Harde","director":"Frau Beyer-Gerke","location":{"lat":"54.2197338","lon":"9.5185035"}},{"name":"Theodor-Storm-Dörfergemeinschaftsschule","id":"SH-0707506","address":"Hafenstraße 20, 25557 Hanerau-Hademarschen","school_type":"Gemeinschaftsschule ohne Oberstufe","legal_status":1,"fax":"04872 - 3974","phone":"04874 - 212","email":"ts-dgs.todenbuettel@schule.landsh.de","provider":"Schulverband Hanerau-Hademarschen","director":"Frau Brunkert","location":{"lat":"54.1304318","lon":"9.4052537"}},{"name":"Grundschule Hamberge","id":"SH-0702958","address":"Schulstraße 10, 23619 Hamberge","school_type":"Grundschule","legal_status":1,"fax":"- keine Angabe -","phone":"0451 - 891406","provider":"Amt Nordstormarn","director":"Frau Langnau","location":{"lat":"53.8412862","lon":"10.579762"}},{"name":"Grund- und Gemeinschaftsschule an der Bek in Halstenbek","id":"SH-0707404","address":"Hartkirchener Chaussee 8, 25469 Halstenbek","school_type":"Gemeinschaftsschule ohne Oberstufe","legal_status":1,"fax":"04101 - 58980200","phone":"04101 - 58980100","provider":"Gemeinde Halstenbek","director":"Frau Bathke-Redlefsen","location":{"lat":"53.6319999","lon":"9.8380233"}},{"name":"Wolfgang-Borchert-Gymnasium","id":"SH-0705459","address":"Bickbargen 111, 25469 Halstenbek","school_type":"Gymnasium","legal_status":1,"fax":"04101 - 842844","phone":"04101 - 84280","provider":"Gemeinde Halstenbek","director":"Herr Poeschel","location":{"lat":"53.6203865","lon":"9.86467594346858"}},{"name":"Grundschule Ulzburg","id":"SH-0702830","address":"Schulstraße 9, 24558 Henstedt-Ulzburg","school_type":"Grundschule","legal_status":1,"fax":"04193 - 993994","phone":"04193 - 6037","provider":"Gemeinde Henstedt-Ulzburg","director":"Frau Kelber","location":{"lat":"53.78970585","lon":"9.97578804663459"}},{"name":"Grundschule Lütte School","id":"SH-0702886","address":"Abschiedskoppel 6, 24558 Henstedt-Ulzburg","school_type":"Grundschule","legal_status":1,"fax":"04193 - 8825116","phone":"04193 - 8825115","provider":"Gemeinde Henstedt-Ulzburg","director":"Frau Pilkahn","location":{"lat":"53.77583465","lon":"9.98024442901219"}},{"name":"Eiderlandschule Hennstedt","id":"SH-0707204","address":"Schulstraße 29 - 31, 25779 Hennstedt","school_type":"Gemeinschaftsschule ohne Oberstufe","legal_status":1,"fax":"04836 - 639","phone":"04882 - 65600","email":"eiderlandschule.lunden@schule.landsh.de","provider":"Amt KLG Eider","director":"Herr Sander","location":{"lat":"54.2872155","lon":"9.1647163"}},{"name":"Grundschule Husby","id":"SH-0702247","address":"Schulstraße 16, 24975 Husby","school_type":"Grundschule","legal_status":1,"fax":"04634 - 931494","phone":"04634 - 260","provider":"Schulverband Mittelangeln","director":"Frau Koziel","location":{"lat":"54.76641355","lon":"9.58166548496783"}},{"name":"Jacob-Struve-Schule","id":"SH-0707651","address":"Heisterender Weg 19, 25358 Horst (Holstein)","school_type":"Gemeinschaftsschule ohne Oberstufe","legal_status":1,"fax":"04126 - 38246","phone":"04126 - 38251","provider":"Schulverband Horst","director":"Frau David-Glißmann"},{"name":"Grundschule Op de Host","id":"SH-0702930","address":"Birkenweg 19, 25358 Horst (Holstein)","school_type":"Grundschule","legal_status":1,"fax":"04126 - 397919","phone":"04126 - 39790","provider":"Schulverband Horst","director":"Frau Thurau","location":{"lat":"53.8108063","lon":"9.61518357572064"}},{"name":"Schule am See","id":"SH-0702676","address":"Dorfstraße 14, 24363 Holtsee","school_type":"Grundschule","legal_status":1,"fax":"04357 - 999699","phone":"04356 - 245","email":"schule-am-see.holtsee@schule.landsh.de","provider":"Schulverband Groß Wittensee / Holtsee","director":"Frau Birn","location":{"lat":"54.4018886","lon":"9.8570409"}},{"name":"Wolfgang-Borchert-Schule","id":"SH-0707660","address":"Gorch-Fock-Straße 17, 25524 Itzehoe","school_type":"Gemeinschaftsschule ohne Oberstufe","legal_status":1,"fax":"04821 - 80408940","phone":"04821 - 4039890","email":"wolfgang-borchert-regionalschule.itzehoe@schule.landsh.de","provider":"Stadt Itzehoe","director":"Herr Leisner","location":{"lat":"53.93416495","lon":"9.5128695172389"}},{"name":"Auguste-Viktoria-Schule","id":"SH-0705701","address":"Gr. Paaschburg 68, 25524 Itzehoe","school_type":"Gymnasium","legal_status":1,"fax":"04821 - 674139","phone":"04821 - 67410","provider":"Stadt Itzehoe","director":"Herr Hartung","location":{"lat":"53.91968445","lon":"9.52463732924384"}},{"name":"Kaiser-Karl-Schule","id":"SH-0705702","address":"Hinterm Sandberg 1 - 3, 25524 Itzehoe","school_type":"Gymnasium","legal_status":1,"fax":"04821 - 3210","phone":"04821 - 2764","provider":"Stadt Itzehoe","director":"Herr Baudach","location":{"lat":"53.9258185","lon":"9.52198871407792"}},{"name":"Sophie-Scholl-Gymnasium","id":"SH-0705703","address":"Am Lehmwohld 41, 25524 Itzehoe","school_type":"Gymnasium","legal_status":1,"fax":"04821 - 75022","phone":"04821 - 75021","provider":"Kreis Steinburg","director":"Frau Hartmann","location":{"lat":"53.9371914","lon":"9.5104459"}},{"name":"Grundschule Edendorf","id":"SH-0702903","address":"Obere Dorfstraße 8, 25524 Itzehoe","school_type":"Grundschule","legal_status":1,"fax":"04821 - 4049913","phone":"04821 - 404990","provider":"Stadt Itzehoe","director":"Herr Grünbauer","location":{"lat":"53.9518692","lon":"9.498434"}},{"name":"Grundschule Sude-West","id":"SH-0702904","address":"Ansgarstraße 10, 25524 Itzehoe","school_type":"Grundschule","legal_status":1,"fax":"04821 - 1765-12","phone":"04821 - 17650","provider":"Stadt Itzehoe","director":"Frau Kullik","location":{"lat":"53.9370177","lon":"9.491748"}},{"name":"Grundschule Wellenkamp","id":"SH-0702905","address":"Kamper Weg 105 - 107, 25524 Itzehoe","school_type":"Grundschule","legal_status":1,"fax":"04821 - 896320","phone":"04821 - 89630","provider":"Stadt Itzehoe","director":"Herr Teggatz","location":{"lat":"53.90797005","lon":"9.48615432002352"}},{"name":"Ernst-Moritz-Arndt-Schule","id":"SH-0702908","address":"Schäferkoppel 2, 25524 Itzehoe","school_type":"Grundschule","legal_status":1,"fax":"04821 - 404822","phone":"04821 - 40480","provider":"Stadt Itzehoe","director":"Frau Sens-Görrissen","location":{"lat":"53.9417382","lon":"9.5213661726115"}},{"name":"Fehrs-Schule","id":"SH-0702909","address":"Fehrsstraße 16, 25524 Itzehoe","school_type":"Grundschule","legal_status":1,"fax":"04821 - 92054","phone":"04821 - 92042","provider":"Stadt Itzehoe","director":"Frau Christensen-Schultz-Collet","location":{"lat":"53.9251364","lon":"9.5275908"}},{"name":"Regionales Berufsbildungszentrum des Kreises Steinburg","id":"SH-0706685","address":"Juliengardeweg 9, 25524 Itzehoe","school_type":"Berufsbildende Schule","legal_status":1,"fax":"04821 - 68355","phone":"04822 - 3655119","email":"info@rbz-steinburg.de","provider":"rbz-Steinburg","director":"Herr Teske","location":{"lat":"53.932422","lon":"9.51599543358363"}},{"name":"Rungholtschule","id":"SH-0703358","address":"Hermann-Tast-Straße 62, 25813 Husum","school_type":"FöZ mit dem SP geistige Entwicklung","legal_status":1,"fax":"04841 - 836434","phone":"04841 - 83640","provider":"Kreis Nordfriesland","director":"Frau Schwitters","location":{"lat":"54.4864277","lon":"9.0543493"}},{"name":"Grundschule Karby","id":"SH-0702764","address":"Schulweg 6, 24398 Karby","school_type":"Grundschule","legal_status":1,"fax":"04644 - 973197","phone":"04644 - 239","provider":"Nahbereichsschulverband Kappeln","director":"Frau Gorecki","location":{"lat":"54.6228749","lon":"9.9762559"}},{"name":"Gemeinschaftsschule an der Schlei","id":"SH-0707557","address":"Hindenburgstraße 2, 24376 Kappeln","school_type":"Gemeinschaftsschule ohne Oberstufe","legal_status":1,"fax":"04642 - 2180","phone":"04642 - 2176","provider":"Nahbereichsschulverband Kappeln","director":"Frau Pichatzek","location":{"lat":"54.66188335","lon":"9.92436252880669"}},{"name":"Grundschule Wellsee","id":"SH-0702054","address":"Schoolkamp 14, 24145 Kiel","school_type":"Grundschule","legal_status":1,"fax":"0431 - 26093099","phone":"0431 - 26093070","provider":"Landeshauptstadt Kiel","director":"Herr Kalippke","location":{"lat":"54.28803555","lon":"10.165708131926"}},{"name":"Fritz-Reuter-Schule","id":"SH-0702061","address":"Fritz-Reuter-Straße 79 - 85, 24159 Kiel","school_type":"Grundschule","legal_status":1,"fax":"0431 - 2208729","phone":"0431 - 220870","provider":"Landeshauptstadt Kiel","director":"Herr Tonner","location":{"lat":"54.3969127","lon":"10.1719658"}},{"name":"Grundschule Fröbelschule","id":"SH-0702062","address":"Iltisstraße 82, 24143 Kiel","school_type":"Grundschule","legal_status":1,"fax":"0431 - 75844","phone":"0431 - 76617","provider":"Landeshauptstadt Kiel","director":"Herr Kleine-Bley","location":{"lat":"54.3058065","lon":"10.1449528700634"}},{"name":"Gerhart-Hauptmann-Schule -Grundschule-","id":"SH-0702063","address":"Große  Ziegelstraße 62, 24148 Kiel","school_type":"Grundschule","legal_status":1,"fax":"0431 - 721089","phone":"0431 - 724980","provider":"Landeshauptstadt Kiel","director":"Frau Camps","location":{"lat":"54.311943","lon":"10.1642369"}},{"name":"Käthe-Kollwitz-Schule","id":"SH-0705053","address":"Paul-Fleming-Straße 1, 24114 Kiel","school_type":"Gymnasium","legal_status":1,"fax":"0431 - 26043939","phone":"0431 - 2604390","provider":"Landeshauptstadt Kiel","director":"Frau Schütz","location":{"lat":"54.31914445","lon":"10.1169982943667"}},{"name":"Humboldt-Schule","id":"SH-0705052","address":"Knooper Weg 63, 24116 Kiel","school_type":"Gymnasium","legal_status":1,"fax":"0431 - 26040399","phone":"0431 - 26040370","provider":"Landeshauptstadt Kiel","director":"Frau Vollbehr","location":{"lat":"54.3262629","lon":"10.127085120029"}},{"name":"Kieler Gelehrtenschule","id":"SH-0705054","address":"Feldstraße 19, 24105 Kiel","school_type":"Gymnasium","legal_status":1,"fax":"0431 - 562005","phone":"0431 - 567274","provider":"Landeshauptstadt Kiel","director":"Herr Schöneich","location":{"lat":"54.3315461","lon":"10.1389769"}},{"name":"Max-Planck-Schule","id":"SH-0705055","address":"Winterbeker Weg 1, 24114 Kiel","school_type":"Gymnasium","legal_status":1,"fax":"0431 - 684331","phone":"0431 - 6499280","provider":"Landeshauptstadt Kiel","director":"Herr Meißner","location":{"lat":"54.3115058","lon":"10.1181347"}},{"name":"Hans-Geiger-Gymnasium","id":"SH-0705057","address":"Poppenrade 53, 24148 Kiel","school_type":"Gymnasium","legal_status":1,"fax":"0431 - 22039939","phone":"0431 - 2203990","provider":"Landeshauptstadt Kiel","director":"Herr Pape-Middendorf","location":{"lat":"54.3094012","lon":"10.1669687"}},{"name":"Ricarda-Huch-Schule","id":"SH-0705056","address":"Hansastrasse 69 a, 24118 Kiel","school_type":"Gymnasium","legal_status":1,"fax":"0431 - 26042839","phone":"0431 - 26042810","provider":"Landeshauptstadt Kiel","director":"Frau Held","location":{"lat":"54.3391967","lon":"10.1281881"}},{"name":"Gymnasium Wellingdorf","id":"SH-0705058","address":"Schönberger Straße 67 - 73, 24148 Kiel","school_type":"Gymnasium","legal_status":1,"fax":"0431 - 60076333","phone":"0431 - 6007630","provider":"Landeshauptstadt Kiel","director":"Herr Borstelmann","location":{"lat":"54.3230482","lon":"10.1688456"}},{"name":"Thor-Heyerdahl-Gymnasium","id":"SH-0705060","address":"Vaasastraße 43, 24109 Kiel","school_type":"Gymnasium","legal_status":1,"fax":"0431 - 5377063","phone":"0431 - 5377003","provider":"Landeshauptstadt Kiel","director":"Herr Stolze","location":{"lat":"54.3237597","lon":"10.0488968"}},{"name":"Gymnasium Elmschenhagen","id":"SH-0705063","address":"Allgäuer Straße 30, 24146 Kiel","school_type":"Gymnasium","legal_status":1,"fax":"0431 - 6684818","phone":"0431 - 668480","provider":"Landeshauptstadt Kiel","director":"Herr Tobinski","location":{"lat":"54.2908482","lon":"10.1946245"}},{"name":"Adolf-Reichwein-Schule","id":"SH-0702040","address":"Tiefe Allee 45, 24149 Kiel","school_type":"Grundschule","legal_status":1,"fax":"0431 - 22002409","phone":"0431 - 22002400","provider":"Landeshauptstadt Kiel","director":"Herr Muhs","location":{"lat":"54.3328596","lon":"10.1863824"}},{"name":"Friedrich-Junge-Grundschule","id":"SH-0702041","address":"Langenbeckstraße 65, 24116 Kiel","school_type":"Grundschule","legal_status":1,"fax":"0431 - 13952","phone":"0431 - 17007","provider":"Landeshauptstadt Kiel","director":"Frau Bruhn","location":{"lat":"54.3225918","lon":"10.1117617"}},{"name":"Abendgymnasium im RBZ Wirtschaft der Landeshauptstadt Kiel (AöR) Europaschule","id":"SH-0705059","address":"Westring 444, 24118 Kiel","school_type":"Abendgymnasium","legal_status":1,"fax":"0431 - 1698444","phone":"0431 - 1698400","provider":"Landeshauptstadt Kiel","director":"Herr Wersig","location":{"lat":"54.3415114","lon":"10.1275166465152"}},{"name":"Ellerbeker Schule","id":"SH-0703063","address":"Klausdorfer Weg 62, 24148 Kiel","school_type":"FöZ mit dem SP geistige Entwicklung","legal_status":1,"fax":"0431 - 721126","phone":"0431 - 3642020","email":"ellerbeker-schule.kiel@schule.landsh.de","provider":"Landeshauptstadt Kiel","director":"Frau El Haddad","location":{"lat":"54.3199365","lon":"10.1756389"}},{"name":"Grundschule Langballig","id":"SH-0702250","address":"Hauptstraße 15 a, 24977 Langballig","school_type":"Grundschule","legal_status":1,"fax":"04636 - 977584","phone":"04636 - 8395","provider":"Amt Langballig","director":"Herr Schoen","location":{"lat":"54.8098326","lon":"9.6381537"}},{"name":"Grundschule Ladelund-Achtrup,Grundschule des Schulverbandes Ladelund in Ladelund","id":"SH-0702361","address":"Schulstraße 13, 25926 Ladelund","school_type":"Grundschule","legal_status":1,"fax":"04666 - 989317","phone":"04662 - 619","email":"grundschule.achtrup@schule.landsh.de","provider":"Schulverband Ladelund","director":"Frau Jappsen-Gottburg","location":{"lat":"54.8423927","lon":"9.0307816"}},{"name":"Grundschule Laboe","id":"SH-0702587","address":"Schulstraße 1, 24235 Laboe","school_type":"Grundschule","legal_status":1,"fax":"04343 - 421251","phone":"04343 - 1753","provider":"Gemeinde Laboe","director":"Frau Telli","location":{"lat":"54.40327495","lon":"10.2238680301601"}},{"name":"Grundschule Kölln-Reisiek","id":"SH-0702517","address":"Köllner Chaussee 129, 25337 Kölln-Reisiek","school_type":"Grundschule","legal_status":1,"fax":"04121 - 787980","phone":"04121 - 71766","provider":"Gemeinde Kölln-Reisiek","director":"Frau Isidro","location":{"lat":"53.75652715","lon":"9.70656780238239"}},{"name":"Bilsbek-Schule","id":"SH-0702518","address":"Prisdorfer Straße 72, 25495 Kummerfeld","school_type":"Grundschule","legal_status":1,"fax":"04101 - 85666-19","phone":"04101 - 856660","provider":"Schulverband Bilsbek","director":"Herr Hansen","location":{"lat":"53.68717855","lon":"9.77862212408382"}},{"name":"Paul-Gerhardt-Schule","id":"SH-0702132","address":"Paul-Gerhardt-Straße 4 - 8, 23554 Lübeck, Hansestadt","school_type":"Grundschule","legal_status":1,"fax":"0451 - 49830120","phone":"0451 - 4983010","provider":"Hansestadt Lübeck","director":"Frau Trambacz"},{"name":"Schule am Koggenweg","id":"SH-0702134","address":"Koggenweg 1, 23558 Lübeck, Hansestadt","school_type":"Grundschule","legal_status":1,"fax":"0451 - 87150620","phone":"0451 - 8715060","provider":"Hansestadt Lübeck","director":"Herr Rosenberger"},{"name":"Paul-Klee-Schule","id":"SH-0702135","address":"Alexander Fleming Straße 6 - 12, 23562 Lübeck, Hansestadt","school_type":"Grundschule","legal_status":1,"fax":"0451 - 3998120","phone":"0451 - 5821863","email":"schule-wulfsdorf.luebeck@schule.landsh.de","provider":"Hansestadt Lübeck","director":"Frau Blackert"},{"name":"Berufsschule der Handwerkskammer Lübeck","id":"SH-0706171","address":"Wiekstraße 5, 23570 Lübeck, Hansestadt","school_type":"Berufsbildende Schule","legal_status":1,"fax":"04502 - 887407","phone":"0451 - 5029100","email":"service@LBS-hoerakustik.de","provider":"Handwerkskammer Lübeck","director":"Herr Kroll","location":{"lat":"53.9517614","lon":"10.8815939"}},{"name":"Gewerbeschule - Nahrung und Gastronomie - Berufliche Schule der Hansestadt Lübeck","id":"SH-0706197","address":"Parade 2, 23552 Lübeck, Hansestadt","school_type":"Berufsbildende Schule","legal_status":1,"fax":"0451 - 1228966","phone":"0451 - 1228975","email":"info@hotelfachschule-luebeck.de","provider":"Hansestadt Lübeck","director":"Herr Ruscheck"},{"name":"Emil-Possehl-Schule","id":"SH-0706198","address":"Georg-Kerschensteiner-Straße 27, 23554 Lübeck, Hansestadt","school_type":"Berufsbildende Schule","legal_status":1,"fax":"0451 - 12286990","phone":"0451 - 12286900","provider":"Hansestadt Lübeck","director":"Herr Krüger"},{"name":"Hanse-Schule","id":"SH-0706226","address":"Dankwartsgrube  14 - 22, 23552 Lübeck, Hansestadt","school_type":"Berufsbildende Schule","legal_status":1,"fax":"0451 - 1228892","phone":"0451 - 1228887","provider":"Hansestadt Lübeck","director":"Herr Wolter"},{"name":"Friedrich-List-Schule","id":"SH-0706240","address":"Georg-Kerschensteiner-Straße 29, 23554 Lübeck, Hansestadt","school_type":"Berufsbildende Schule","legal_status":1,"fax":"0451 - 1228912","phone":"0451 - 1228935","email":"cosmus@listschule.de","provider":"Hansestadt Lübeck","director":"Herr Cosmus"},{"name":"Dorothea-Schlözer-Schule","id":"SH-0706254","address":"Jerusalemsberg 1 - 3, 23568 Lübeck, Hansestadt","school_type":"Berufsbildende Schule","legal_status":1,"fax":"0451 - 1228868","phone":"0451 - 1228860","provider":"Hansestadt Lübeck","director":"Herr Brüggmann"},{"name":"Grundschule Lunden","id":"SH-0702219","address":"Am Gehölz 12, 25774 Lunden","school_type":"Grundschule","legal_status":1,"fax":"04882 - 656050","phone":"04882 - 65600","provider":"[Wert nicht verfügbar]","director":"Frau Jaster","location":{"lat":"54.3267446","lon":"9.0282149"}},{"name":"Grundschule Schönböcken","id":"SH-0702103","address":"Schönböckener Hauptstraße 18, 23556 Lübeck, Hansestadt","school_type":"Grundschule","legal_status":1,"fax":"0451 - 8132902","phone":"0451 - 891916","provider":"Hansestadt Lübeck","director":"Frau Winkler"},{"name":"Bugenhagen-Schule","id":"SH-0702092","address":"Moislinger Allee 32, 23558 Lübeck, Hansestadt","school_type":"Grundschule","legal_status":1,"fax":"0451 - 87150220","phone":"0451 - 8715020","provider":"Hansestadt Lübeck","director":"Herr Seidel"},{"name":"Geschwister-Prenski-Schule","id":"SH-0707113","address":"Travemünder Allee 5 a, 23568 Lübeck, Hansestadt","school_type":"Gemeinschaftsschule mit Oberstufe","legal_status":1,"fax":"0451 - 12284890","phone":"0451 - 12284800","provider":"Hansestadt Lübeck","director":"Herr Bennung","location":{"lat":"53.8828503","lon":"10.7035788"}},{"name":"Heinrich-Mann-Schule","id":"SH-0707103","address":"Brüder-Grimm-Ring 6 - 8, 23560 Lübeck, Hansestadt","school_type":"Gemeinschaftsschule ohne Oberstufe","legal_status":1,"fax":"0451 - 1228407","phone":"0451 - 1228411","provider":"Hansestadt Lübeck","director":"Herr Butzin"},{"name":"Julius-Leber-Schule","id":"SH-0707105","address":"Marquardplatz 7, 23554 Lübeck, Hansestadt","school_type":"Gemeinschaftsschule ohne Oberstufe","legal_status":1,"fax":"0451 - 1228446","phone":"0451 - 1228019","email":"julius-leber-schule.luebeck@schule.landsh.de","provider":"Hansestadt Lübeck","director":"Herr Nommensen"},{"name":"Emanuel-Geibel-Schule","id":"SH-0707106","address":"Glockengiesserstraße 33 - 37, 23552 Lübeck, Hansestadt","school_type":"Gemeinschaftsschule ohne Oberstufe","legal_status":1,"fax":"0451 - 1228454","phone":"0451 - 1228451","provider":"Hansestadt Lübeck","director":"Herr Lindenthal"},{"name":"Schule Tremser Teich","id":"SH-0707107","address":"Am Behnckenhof 37, 23554 Lübeck, Hansestadt","school_type":"Gemeinschaftsschule ohne Oberstufe","legal_status":1,"fax":"0451 - 48151820","phone":"0451 - 1228200","provider":"Hansestadt Lübeck","director":"Herr Haltermann"},{"name":"Grundschule Meldorf","id":"SH-0702196","address":"Rosenstraße 36 - 28, 25704 Meldorf","school_type":"Grundschule","legal_status":1,"fax":"04832 - 9439","phone":"04832 - 9469","provider":"Schulverband Meldorf","director":"Frau Beckmann","location":{"lat":"54.0885767","lon":"9.0712258"}},{"name":"Regionales BerufsBildungsZentrum Dithmarschen","id":"SH-0706383","address":"Friedrichshöfer Straße 31, 25704 Meldorf","school_type":"Berufsbildende Schule","legal_status":1,"fax":"04832 - 903250","phone":"0481 - 850810","email":"info@bbz-dithmarschen.de","provider":"Kreis Dithmarschen","director":"Herr Kruse","location":{"lat":"54.08222475","lon":"9.07159365286081"}},{"name":"Grundschule Medelby","id":"SH-0702253","address":"Hauptstraße 4, 24994 Medelby","school_type":"Grundschule","legal_status":1,"fax":"04605 - 416","phone":"04605 - 238","provider":"Schulverband Medelby","director":"Herr Marquardt","location":{"lat":"54.8129018","lon":"9.16474632077004"}},{"name":"Reimer-Bull-Schule","id":"SH-0707207","address":"Hafenstrasse 12, 25709 Marne","school_type":"Gemeinschaftsschule ohne Oberstufe","legal_status":1,"fax":"04851 - 785","phone":"04851 - 95970","provider":"Amt Marne - Nordsee","director":"Herr Könnecke","location":{"lat":"53.94982425","lon":"9.00660531705757"}},{"name":"Gymnasium Marne","id":"SH-0705202","address":"Bürgermeister-Plambeck-Straße 9, 25709 Marne","school_type":"Gymnasium","legal_status":1,"fax":"04851 - 8303","phone":"04851 - 3083","provider":"Kreis Dithmarschen","director":"Herr Beckmann","location":{"lat":"53.95544145","lon":"9.00547974551871"}},{"name":"Gemeinschaftsschule der  Gemeinde Malente in Malente","id":"SH-0707359","address":"Neversfelder Straße 11, 23714 Malente","school_type":"Gemeinschaftsschule ohne Oberstufe","legal_status":1,"fax":"04523 - 989150","phone":"04523 - 98910","provider":"Gemeinde Malente","director":"Herr Dr. Philipp","location":{"lat":"54.179074","lon":"10.55"}},{"name":"Grundschule Malente","id":"SH-0702452","address":"Marktstraße 2, 23714 Malente","school_type":"Grundschule","legal_status":1,"fax":"04523 - 7552","phone":"04523 - 2367","provider":"Gemeinde Malente","director":"Herr Borchers","location":{"lat":"54.17395355","lon":"10.5582527729724"}},{"name":"Liliencronschule","id":"SH-0702916","address":"Liliencronstraße 18, 25566 Lägerdorf","school_type":"Grundschule","legal_status":1,"fax":"04828 - 1240","phone":"04828 - 301","provider":"Gemeinde Lägerdorf","director":"Frau Helfrich","location":{"lat":"53.8892756","lon":"9.5728221"}},{"name":"Grundschule Lütjensee","id":"SH-0702962","address":"Hamburger Straße 11, 22952 Lütjensee","school_type":"Grundschule","legal_status":1,"fax":"04154 - 791036","phone":"04154 - 791034","provider":"Schulverband Lütjensee","director":"Herr Bieder","location":{"lat":"53.6505745","lon":"10.3649635"}},{"name":"Gemeinschaftsschule im Hoffmann-von-Fallersleben-Schulzentrum","id":"SH-0707454","address":"Kieler Straße 30, 24321 Lütjenburg","school_type":"Gemeinschaftsschule ohne Oberstufe","legal_status":1,"fax":"04381 - 905870","phone":"04381 - 905821","provider":"Kreis Plön","director":"Frau Richter","location":{"lat":"54.29295165","lon":"10.5770631165985"}},{"name":"Schule Steinfeld","id":"SH-0703309","address":"Bürgermeister-Oetken-Straße 3, 23879 Mölln","school_type":"FöZ mit dem SP geistige Entwicklung","legal_status":1,"fax":"04542 - 8389859","phone":"04542 - 838980","provider":"Kreis Herzogtum Lauenburg","director":"Frau Preuninger","location":{"lat":"53.60585095","lon":"10.6812339474065"}},{"name":"Alexander-von-Humboldt-Schule","id":"SH-0705154","address":"Roschdohler Weg 11, 24536 Neumünster","school_type":"Gymnasium","legal_status":1,"fax":"04321 - 9570530","phone":"04321 - 957050","provider":"Stadt Neumünster","director":"Frau Weege","location":{"lat":"54.1062145","lon":"9.9866662"}},{"name":"Helene-Lange-Schule","id":"SH-0708151","address":"Roonstraße 42, 24534 Neumünster","school_type":"Regionalschule","legal_status":1,"fax":"04321 - 179802","phone":"04321 - 2520610","provider":"Stadt Neumünster","director":"Herr Vetter","location":{"lat":"54.07717925","lon":"9.97155751528583"}},{"name":"Pestalozzischule","id":"SH-0708152","address":"Am Kamp 1, 24536 Neumünster","school_type":"Regionalschule","legal_status":1,"fax":"04321 - 939221","phone":"04321 - 8534764","provider":"Stadt Neumünster","director":"Frau Harder","location":{"lat":"54.0996439","lon":"10.010403"}},{"name":"Schule Gadeland","id":"SH-0702142","address":"Norderstraße 1, 24539 Neumünster","school_type":"Grundschule","legal_status":1,"fax":"04321 - 979581","phone":"04321 - 73964","provider":"Stadt Neumünster","director":"Herr Behr","location":{"lat":"54.0533398","lon":"10.0217099100036"}},{"name":"Gartenstadtschule","id":"SH-0702143","address":"Nachtredder 69, 24537 Neumünster","school_type":"Grundschule","legal_status":1,"fax":"04321 - 953125","phone":"04321 - 2653623","provider":"Stadt Neumünster","director":"Frau Naumann","location":{"lat":"54.0903421","lon":"9.96782571326521"}},{"name":"Johann-Hinrich-Fehrs-Schule","id":"SH-0702145","address":"Wilhelmstraße 8 - 16, 24534 Neumünster","school_type":"Grundschule","legal_status":1,"fax":"04321 - 179808","phone":"04321 - 5550984","provider":"Stadt Neumünster","director":"Frau Wulf-Fechner","location":{"lat":"54.0726627","lon":"9.97526561426596"}},{"name":"Friedrich-Paulsen-Schule","id":"SH-0705352","address":"Friedrich-Paulsen-Straße 5, 25899 Niebüll","school_type":"Gymnasium","legal_status":1,"fax":"04661 - 962828","phone":"04661 - 96280","provider":"Amt Südtondern","director":"Herr Kruse","location":{"lat":"54.78661235","lon":"8.8241036"}},{"name":"Gemeinschaftsschule der Stadt Niebüll in Niebüll","id":"SH-0707311","address":"Uhlebüller Straße 15, 25899 Niebüll","school_type":"Gemeinschaftsschule ohne Oberstufe","legal_status":1,"fax":"04661 - 930329","phone":"04661 - 930300","provider":"Stadt Niebüll","director":"Herr Sönnichsen","location":{"lat":"54.7915831","lon":"8.8285631"}},{"name":"Berufliche Schule des Kreises Nordfriesland in Niebüll","id":"SH-0706468","address":"Uhlebüller Straße 15, 25899 Niebüll","school_type":"Berufsbildende Schule","legal_status":1,"fax":"04661 - 930199","phone":"04651 - 8364640","email":"info.westerland@bs-niebuell.de","provider":"Kreis Nordfriesland","director":"Herr Brandt","location":{"lat":"54.7915831","lon":"8.8285631"}},{"name":"Alwin-Lensch-Schule","id":"SH-0702370","address":"Marktstraße 14, 25899 Niebüll","school_type":"Grundschule","legal_status":1,"fax":"04661 - 960520","phone":"04661 - 96050","provider":"Stadt Niebüll","director":"Frau Lentfer","location":{"lat":"54.7854674","lon":"8.8238706"}},{"name":"Schule am Rosengarten","id":"SH-0703405","address":"Rosengarten 20, 23730 Neustadt in Holstein","school_type":"FöZ mit dem SP Lernen","legal_status":1,"fax":"04561 - 5199114","phone":"04561 - 519910","provider":"Stadt Neustadt in Holstein","director":"Herr Hopp","location":{"lat":"54.1106059","lon":"10.8188081"}},{"name":"Jacob-Lienau-Schule","id":"SH-0707361","address":"Schulstraße 2, 23730 Neustadt in Holstein","school_type":"Gemeinschaftsschule ohne Oberstufe","legal_status":1,"fax":"04561 - 4071818","phone":"04561 - 407180","provider":"Stadt Neustadt in Holstein","director":"Herr Schmidt","location":{"lat":"54.1061851","lon":"10.8211844"}},{"name":"Städtisches Gymnasium Neustadt in Holstein","id":"SH-0705403","address":"Butzhorn 85, 23730 Neustadt in Holstein","school_type":"Gymnasium","legal_status":1,"fax":"04561 - 407368","phone":"04561 - 17100","provider":"Stadt Neustadt in Holstein","director":"Herr Kilian","location":{"lat":"54.0959401","lon":"10.8191439"}},{"name":"Fröbelschule","id":"SH-0703154","address":"Flensburger Str. 9, 24537 Neumünster","school_type":"FöZ mit dem SP geistige Entwicklung","legal_status":1,"fax":"04321 - 968446","phone":"04321 - 2691166","email":"","provider":"Stadt Neumünster","director":"Herr Blank","location":{"lat":"54.05847175","lon":"9.9507338970826"}},{"name":"Steinkamp-Grundschule","id":"SH-0702455","address":"Am Steinkamp 5, 23730 Neustadt in Holstein","school_type":"Grundschule","legal_status":1,"fax":"04561 - 5199222","phone":"04561 - 519920","provider":"Stadt Neustadt in Holstein","director":"Frau Grave"},{"name":"Gustav-Hansen-Schule","id":"SH-0703150","address":"Dithmarscher Straße 6, 24539 Neumünster","school_type":"FöZ mit dem SP Lernen","legal_status":1,"fax":"04321 - 979468","phone":"04321 - 2516337","provider":"Stadt Neumünster","director":"Herr Möller-Lange","location":{"lat":"54.0628734","lon":"9.9944383"}},{"name":"Gymnasium Harksheide","id":"SH-0705651","address":"Falkenbergstraße 25, 22844 Norderstedt","school_type":"Gymnasium","legal_status":1,"fax":"040 - 52560655","phone":"040 - 52560630","provider":"Stadt Norderstedt","director":"Frau Vorwerck","location":{"lat":"53.70742815","lon":"10.0050545062161"}},{"name":"Wagrienschule","id":"SH-0707356","address":"Mühlenkamp 18 a, 23758 Oldenburg in Holstein","school_type":"Gemeinschaftsschule ohne Oberstufe","legal_status":1,"fax":"04361 - 490920","phone":"04361 - 49090","provider":"Stadt Oldenburg in Holstein","director":"Herr Klahre","location":{"lat":"54.2907119","lon":"10.8802925"}},{"name":"Freiherr-vom-Stein-Gymnasium der Stadt Oldenburg","id":"SH-0705404","address":"Adolf-Friedrich-Straße 1, 23758 Oldenburg in Holstein","school_type":"Gymnasium","legal_status":1,"fax":"04361 - 908629","phone":"04361 - 90860","provider":"Stadt Oldenburg in Holstein","director":"Herr Bigott","location":{"lat":"54.2920245","lon":"10.8961235"}},{"name":"Grundschule am Wasserquell","id":"SH-0702459","address":"Breslauer Straße 15, 23758 Oldenburg in Holstein","school_type":"Grundschule","legal_status":1,"fax":"04361 - 621445","phone":"04361 - 7360","provider":"Stadt Oldenburg in Holstein","director":"Frau Hansen-Wohlfahrt","location":{"lat":"54.2958468","lon":"10.8957358"}},{"name":"Grundschule Oeversee","id":"SH-0702254","address":"Stapelholmer Weg 39, 24988 Oeversee","school_type":"Grundschule","legal_status":1,"fax":"04630 - 937166","phone":"04630 - 5250","provider":"Gemeinde Oeversee","director":"Frau Wulff-Dose","location":{"lat":"54.69901315","lon":"9.43046037426953"}},{"name":"Berufliche Schule des Kreises Ostholstein in Oldenburg","id":"SH-0706505","address":"Kremsdorfer Weg 31, 23758 Oldenburg in Holstein","school_type":"Berufsbildende Schule","legal_status":1,"fax":"04361 - 43-61","phone":"04561 - 51210","email":"neustadt@bbs-old.de","provider":"Kreis Ostholstein","director":"Frau Dr. Goos","location":{"lat":"54.2938941","lon":"10.8989553"}},{"name":"GuGS im Quellental","id":"SH-0707405","address":"Richard-Köhn-Straße 75, 25421 Pinneberg","school_type":"Gemeinschaftsschule ohne Oberstufe","legal_status":1,"fax":"04101 - 6966522","phone":"04101 - 696650","provider":"Stadt Pinneberg","director":"Herr Gerdes","location":{"lat":"53.6486004","lon":"9.7924773"}},{"name":"Johann-Comenius-Schule Thesdorf","id":"SH-0707414","address":"Horn 5, 25421 Pinneberg","school_type":"Gemeinschaftsschule mit Oberstufe","legal_status":1,"fax":"04101 - 694180","phone":"04101 - 69410","provider":"Stadt Pinneberg","director":"Frau Holst-Timm","location":{"lat":"53.64041025","lon":"9.81514220077387"}},{"name":"Schulzentrum Nord","id":"SH-0707418","address":"Schulenhörn 40, 25421 Pinneberg","school_type":"Gemeinschaftsschule ohne Oberstufe","legal_status":1,"fax":"04101 - 799444","phone":"04101 - 79940","provider":"Stadt Pinneberg","director":"Herr Witt","location":{"lat":"53.6728752","lon":"9.7860538"}},{"name":"Johannes-Brahms-Schule","id":"SH-0705452","address":"Fahltskamp 36, 25421 Pinneberg","school_type":"Gymnasium","legal_status":1,"fax":"04101 - -","phone":"04101 - 8451601","email":"","provider":"Stadt Pinneberg","director":"Frau Bruhn","location":{"lat":"53.65782235","lon":"9.80483694338417"}},{"name":"Theodor-Heuss-Schule","id":"SH-0705453","address":"Datumer Chaussee 2, 25421 Pinneberg","school_type":"Gymnasium","legal_status":1,"fax":"04101 - 698134","phone":"04101 - 69810","provider":"Stadt Pinneberg","director":"Herr Beimel","location":{"lat":"53.6438594","lon":"9.79711603486689"}},{"name":"Hans-Claussen-Schule","id":"SH-0702521","address":"Elmshorner Straße 52, 25421 Pinneberg","school_type":"Grundschule","legal_status":1,"fax":"04101 - 73076","phone":"04101 - 73076","provider":"Stadt Pinneberg","director":"Frau Wiech","location":{"lat":"53.6681036","lon":"9.79531223596431"}},{"name":"Helene-Lange-Schule Pinneberg","id":"SH-0702522","address":"Kirchhofsweg 5, 25421 Pinneberg","school_type":"Grundschule","legal_status":1,"fax":"04101 - 5561413","phone":"04101 - 556140","provider":"Stadt Pinneberg","director":"Frau Hansen","location":{"lat":"53.65770885","lon":"9.78599098534538"}},{"name":"Grundschule Rübekamp","id":"SH-0702523","address":"Rübekamp 13 - 15, 25421 Pinneberg","school_type":"Grundschule","legal_status":1,"fax":"04101 - 22789","phone":"04101 - 22789","provider":"Stadt Pinneberg","director":"Frau Stalmann","location":{"lat":"53.66018675","lon":"9.79414702215905"}},{"name":"Grundschule Thesdorf","id":"SH-0702526","address":"Pestalozzistraße 7, 25421 Pinneberg","school_type":"Grundschule","legal_status":1,"fax":"04101 - 690506","phone":"04101 - 62709","provider":"Stadt Pinneberg","director":"Frau Krohn","location":{"lat":"53.642167","lon":"9.81372884913713"}},{"name":"Berufliche Schule des Kreises Pinneberg in Pinneberg","id":"SH-0706533","address":"An der Berufsschule 1, 25421 Pinneberg","school_type":"Berufsbildende Schule","legal_status":1,"fax":"04101 - 84340700","phone":"04101 - 843400","provider":"Kreis Pinneberg","director":"Herr Krause","location":{"lat":"53.6588425","lon":"9.8018209"}},{"name":"Johann-Heinrich-Pestalozzi-Schule","id":"SH-0703504","address":"Hufenweg 5, 24211 Preetz","school_type":"FöZ mit dem SP Lernen","legal_status":1,"fax":"04342 - 303274","phone":"04342 - 303270","provider":"Schulverband Preetz Stadt und Land","director":"Frau Ecke","location":{"lat":"54.2348814","lon":"10.2782888208228"}},{"name":"Elsensee-Gymnasium","id":"SH-0705457","address":"Heidkampstraße 10, 25451 Quickborn","school_type":"Gymnasium","legal_status":1,"fax":"04106 - 653869","phone":"04106 - 6414100","provider":"Stadt Quickborn","director":"Herr Bülck","location":{"lat":"53.72183985","lon":"9.9059821536211"}},{"name":"Erich Kästner Schule","id":"SH-0703755","address":"Bischofsteicher Weg 75 b, 23858 Reinfeld (Holstein)","school_type":"FöZ mit dem SP Lernen","legal_status":1,"fax":"04533 - 5835","phone":"04533 - 3011","provider":"Stadt Reinfeld","director":"Frau Kochansky"},{"name":"Immanuel-Kant-Schule Reinfeld","id":"SH-0707717","address":"Bischofsteicher Weg 75, 23858 Reinfeld (Holstein)","school_type":"Gemeinschaftsschule mit Oberstufe","legal_status":1,"fax":"04533 - 2049849","phone":"04533 - 204980","provider":"Stadt Reinfeld","director":"Herr Trinkler","location":{"lat":"53.8350846","lon":"10.5009226205827"}},{"name":"Matthias-Claudius-Schule","id":"SH-0702970","address":"Marktplatz 1, 23858 Reinfeld (Holstein)","school_type":"Grundschule","legal_status":1,"fax":"04533 - 61177","phone":"04533 - 2441","provider":"Schulverband Reinfeld","director":"Frau Rohweder"},{"name":"Amalie-Sieveking-Schule","id":"SH-0703754","address":"Am Mühlenredder 30, 21465 Reinbek","school_type":"FöZ mit dem SP Lernen","legal_status":1,"fax":"040 - 72734539","phone":"04154 - 2980","email":"","provider":"Stadt Reinbek","director":"Herr Bienengräber"},{"name":"Gemeinschaftsschule mit Oberstufe i.E. im Schulzentrum Mühlenredder. Reinbek","id":"SH-0707711","address":"Mühlenredder 30, 21465 Reinbek","school_type":"Gemeinschaftsschule ohne Oberstufe","legal_status":1,"fax":"040 - 72734529","phone":"040 - 72734521","provider":"Stadt Reinbek","director":"Herr Böckmann","location":{"lat":"53.5186426","lon":"10.2413615429673"}},{"name":"Grundschule der Gemeinde Rickling in Rickling","id":"SH-0702857","address":"Dorfstraße 63, 24635 Rickling","school_type":"Grundschule","legal_status":1,"fax":"04328 - 170819","phone":"04328 - 294","provider":"Gemeinde Rickling","director":"Herr Bärschneider","location":{"lat":"53.9983924","lon":"10.1713326"}},{"name":"Schule Hochfeld","id":"SH-0703566","address":"Aalborgstraße 78 - 84, 24768 Rendsburg","school_type":"FöZ mit dem SP geistige Entwicklung","legal_status":1,"fax":"04331 - 56975","phone":"04331 - 24320","provider":"Kreis Rendsburg-Eckernförde","director":"Frau Buchholz","location":{"lat":"54.3039272","lon":"9.6989002"}},{"name":"Grundschule Rethwisch","id":"SH-0702920","address":"- keine Angabe -, 25566 Rethwisch","school_type":"Grundschule","legal_status":1,"fax":"04828 - 901729","phone":"04828 - 212","provider":"Schulverband Amt Krempermarsch","director":"Frau Nietzke"},{"name":"Sternschule","id":"SH-0703567","address":"Ostlandstraße 44, 24768 Rendsburg","school_type":"FöZ mit dem SP Sprache","legal_status":1,"fax":"04331 - 2017827","phone":"04331 - 4855","provider":"Kreis Rendsburg-Eckernförde","director":"Frau Hagge","location":{"lat":"54.3199791","lon":"9.64309255770601"}},{"name":"Förderzentrum Lernen der Stadt Rendsburg in Rendsburg","id":"SH-0703557","address":"Ahlmannstraße 6 - 8, 24768 Rendsburg","school_type":"FöZ mit dem SP Lernen","legal_status":1,"fax":"04331 - 12105","phone":"04331 - 138162","email":"schule@netzwerk-nord-ost.de","provider":"Stadt Rendsburg","director":"Frau Joppich","location":{"lat":"54.3136172","lon":"9.6394151"}},{"name":"Schule Altstadt","id":"SH-0707502","address":"An der Bleiche 1, 24768 Rendsburg","school_type":"Gemeinschaftsschule ohne Oberstufe","legal_status":1,"fax":"04331 - 9438859","phone":"04331 - 943880","provider":"Stadt Rendsburg","director":"Frau Koppelmann","location":{"lat":"54.3014394","lon":"9.6661442"}},{"name":"Helene-Lange-Gymnasium","id":"SH-0705551","address":"Ritterstraße 12, 24768 Rendsburg","school_type":"Gymnasium","legal_status":1,"fax":"04331 - 141228","phone":"04331 - 14120","provider":"Stadt Rendsburg","director":"Herr Kayma","location":{"lat":"54.2986096","lon":"9.660995"}},{"name":"Christian-Timm-Schule","id":"SH-0707512","address":"Kieler Straße 27, 24768 Rendsburg","school_type":"Gemeinschaftsschule ohne Oberstufe","legal_status":1,"fax":"04331 - 5223","phone":"04331 - 5222","provider":"Stadt Rendsburg","director":"Herr Jahn","location":{"lat":"54.3053848","lon":"9.67565666987898"}},{"name":"Herderschule","id":"SH-0705552","address":"Am Stadtsee 11 - 17, 24768 Rendsburg","school_type":"Gymnasium","legal_status":1,"fax":"04331 - 21056","phone":"04331 - 123080","provider":"Stadt Rendsburg","director":"Herr Anders","location":{"lat":"54.30206585","lon":"9.66174420602637"}},{"name":"Gemeinschaftsschule Achter de Weiden","id":"SH-0707410","address":"Achter De Weiden 34, 22869 Schenefeld","school_type":"Gemeinschaftsschule ohne Oberstufe","legal_status":1,"fax":"040 - 83037221","phone":"040 - 83037220","provider":"Stadt Schenefeld","director":"Frau Baumert","location":{"lat":"53.606328","lon":"9.8257604"}},{"name":"Grund- und Gemeinschaftsschule des  Amtes Schenefeld in Schenefeld","id":"SH-0707652","address":"Rosenstieg 16, 25560 Schenefeld","school_type":"Gemeinschaftsschule ohne Oberstufe","legal_status":1,"fax":"04892 - 803822","phone":"04892 - 80380","provider":"Amt Schenefeld","director":"Herr Bößer","location":{"lat":"54.0447914","lon":"9.4761048"}},{"name":"Grund-und Regionalschule des Schulverbandes Schwarzenbek-Nordost in Schwarzenbek","id":"SH-0708250","address":"Cesenaticostraße 14, 21493 Schwarzenbek","school_type":"Regionalschule","legal_status":1,"fax":"04151 - 8409220","phone":"04151 - 840920","provider":"Schulverband Schwarzenbek-Nordost","director":"Frau Maier","location":{"lat":"53.5082669","lon":"10.4927394"}},{"name":"Grundschule Schwartbuck","id":"SH-0702604","address":"Dorfstrasse 59, 24257 Schwartbuck","school_type":"Grundschule","legal_status":1,"fax":"04385 - 599327","phone":"04385 - 205","provider":"Schulverband Probstei","director":"Herr Martens","location":{"lat":"54.3605392","lon":"10.4798215"}},{"name":"Grundschule Schuby mit Außenstelle Hollingstedt","id":"SH-0702787","address":"Bahnhofstraße 18, 24850 Schuby","school_type":"Grundschule","legal_status":1,"fax":"04621 - 41197","phone":"04627 - 1433","email":"grundschule.schuby@schule.landsh.de","provider":"Amt Arensharde","director":"Frau Johnsen"},{"name":"Grundschule Schmalfeld-Hartenholm","id":"SH-0702861","address":"Schulstrasse 3, 24640 Schmalfeld","school_type":"Grundschule","legal_status":1,"fax":"04191 - 954017","phone":"04195 - 372","email":"grundschule.hartenholm@schule.landsh.de","provider":"Schulverband Schmalfeld-Hasenmoor-Hartenholm","director":"Frau Paul","location":{"lat":"53.8765026","lon":"9.9783338"}},{"name":"Peter-Härtling-Schule","id":"SH-0703608","address":"Holzredder 12, 24837 Schleswig","school_type":"FöZ mit dem SP geistige Entwicklung","legal_status":1,"fax":"04621 - 3060997","phone":"04621 - 3060990","provider":"Kreis Schleswig-Flensburg","director":"Frau Koch","location":{"lat":"54.4970748","lon":"9.5249427"}},{"name":"Schule Hesterberg","id":"SH-0703605","address":"Friedrich-Ebert-Straße 5, 24837 Schleswig","school_type":"FöZ mit dem SP dauerhaft kranke Schüler/-innen","legal_status":1,"fax":"04621 - 834851","phone":"04841 - 77097634","email":"schule-hesterberg.schleswig@schule.landsh.de","provider":"Land Schleswig-Holstein","director":"Herr Täubrich","location":{"lat":"54.5208532","lon":"9.55020257461874"}},{"name":"Schule im Autal","id":"SH-0702258","address":"Sieverstedter Straße 9, 24885 Sieverstedt","school_type":"Grundschule","legal_status":1,"fax":"04603 - 964009","phone":"04603 - 497","provider":"Schulverband Sieverstedt/Havetoft","director":"Frau Krawietz","location":{"lat":"54.644972","lon":"9.4803361"}},{"name":"Grundschule am Wald","id":"SH-0702863","address":"Am Sportfeld 3, 24641 Sievershütten","school_type":"Grundschule","legal_status":1,"fax":"04194 - 980272","phone":"04535 - 8432","email":"grundschule oering@t-online.de","provider":"Schulverband im Amt Kisdorf","director":"Frau Müller"},{"name":"Grundschule Sieversdorf","id":"SH-0702471","address":"Kreisstraße 1, 23714 Sieversdorf","school_type":"Grundschule","legal_status":1,"fax":"04523 - 984780","phone":"04523 - 2129","provider":"Gemeinde Malente","director":"Frau John"},{"name":"Grundschule Seth","id":"SH-0702862","address":"Schulstraße 4, 23845 Seth","school_type":"Grundschule","legal_status":1,"fax":"04194 - 7292","phone":"04194 - 376","provider":"Schulverband im Amt Itzstedt","director":"Frau Wendt","location":{"lat":"53.85065595","lon":"10.1768785592105"}},{"name":"Achim-Bröger-Schule","id":"SH-0702470","address":"Schulstrasse 6, 23611 Sereetz","school_type":"Grundschule","legal_status":1,"fax":"+49451 - 3968302","phone":"+49451 - 392420","provider":"Gemeinde Ratekau","director":"Herr Prichatz","location":{"lat":"53.9230148","lon":"10.7386402596535"}},{"name":"Grundschule Seester","id":"SH-0702537","address":"Dorfstraße 43, 25370 Seester","school_type":"Grundschule","legal_status":1,"fax":"04125 - 958880","phone":"04125 - 386","provider":"Schulverband Seestermüher Marsch","director":"Frau Hahn","location":{"lat":"53.71843455","lon":"9.59788402419789"}},{"name":"Grundschule Schlamersdorf","id":"SH-0702860","address":"Schulstrasse 1, 23823 Seedorf","school_type":"Grundschule","legal_status":1,"fax":"04555 - 464","phone":"04555 - 513","provider":"Trave-Land","director":"Frau Hingst"},{"name":"Friedrich-Hiller-Schule","id":"SH-0702469","address":"Am Ruhsal, 23744 Schönwalde am Bungsberg","school_type":"Grundschule","legal_status":1,"fax":"+494528 - 911813","phone":"+494528 - 404","provider":"Schulverband Bungsberg","director":"Frau Jürs","location":{"lat":"54.1882567","lon":"10.7545966"}},{"name":"Förderzentrum Schönkirchen - Schönberg","id":"SH-0703507","address":"Augustental, 24232 Schönkirchen","school_type":"FöZ mit dem SP Lernen","legal_status":1,"fax":"04348 - 916611","phone":"04344 - 9074","email":"foerderzentrum.schoenberg@schule.landsh.de","provider":"Gemeinde Schönkirchen","director":"Herr Gummert","location":{"lat":"54.3350525","lon":"10.2193889"}},{"name":"Schule St. Nicolai","id":"SH-0702407","address":"St.Nicolai-Straße 6, 25980 Sylt","school_type":"Grundschule","legal_status":1,"fax":"04651 - 299408","phone":"04651 - 5378","email":"","provider":"Gemeinde Sylt","director":"Herr Feldt","location":{"lat":"54.9066542","lon":"8.3080849"}},{"name":"Grundschule Süderlügum","id":"SH-0702396","address":"Schulstraße 15, 25923 Süderlügum","school_type":"Grundschule","legal_status":1,"fax":"04663 - 328","phone":"04663 - 349","provider":"Schulverband Südtondern-Nord","director":"Frau Kosbü","location":{"lat":"54.87342215","lon":"8.90558331747698"}},{"name":"Gymnasium Trittau","id":"SH-0705758","address":"Heinrich-Hertz-Straße 7, 22946 Trittau","school_type":"Gymnasium","legal_status":1,"fax":"04154 - 81027","phone":"04154 - 98920","provider":"Schulverband Trittau","director":"Herr Schwenke","location":{"lat":"53.6182663","lon":"10.3943653"}},{"name":"Grundschule Trittau","id":"SH-0702990","address":"Im Raum 24, 22946 Trittau","school_type":"Grundschule","legal_status":1,"fax":"04154 - 8099237","phone":"04154 - 809920","provider":"Schulverband Trittau","director":"Frau Gundlach","location":{"lat":"53.6186004","lon":"10.3981037466363"}},{"name":"Grundschule Treia","id":"SH-0702799","address":"Treenestraße 53, 24896 Treia","school_type":"Grundschule","legal_status":1,"fax":"04626 - 406","phone":"04626 - 490","provider":"Amt Arensharde","director":"Frau Harmsen","location":{"lat":"54.51397145","lon":"9.31515310642492"}},{"name":"Richard-Hallmann-Schule","id":"SH-0707617","address":"Gablonzer Straße 42, 24610 Trappenkamp","school_type":"Gemeinschaftsschule mit Oberstufe","legal_status":1,"fax":"04323 - 914211","phone":"04323 - 914200","provider":"Gemeinde Trappenkamp","director":"Frau Holfter","location":{"lat":"54.0369204","lon":"10.2175946"}},{"name":"Dr.-Gerlich-Schule","id":"SH-0702867","address":"Gablonzer Straße 42, 24610 Trappenkamp","school_type":"Grundschule","legal_status":1,"fax":"04323 - 914304","phone":"04323 - 914300","provider":"Gemeinde Trappenkamp","director":"Herr Teegen","location":{"lat":"54.0369204","lon":"10.2175946"}},{"name":"Klaus-Groth-Schule","id":"SH-0707413","address":"Klaus-Groth-Straße 11, 25436 Tornesch","school_type":"Gemeinschaftsschule mit Oberstufe","legal_status":1,"fax":"04122 - 403989","phone":"04122 - 40390","provider":"Schulverband Tornesch-Uetersen","director":"Frau Wittmaack","location":{"lat":"53.6903476","lon":"9.7104923"}},{"name":"Moorwegschule","id":"SH-0702549","address":"Breiter Weg 57 - 67, 22880 Wedel","school_type":"Grundschule","legal_status":1,"fax":"04103 - 9121720","phone":"04103 - 912170","provider":"Stadt Wedel","director":"Frau Foßhag","location":{"lat":"53.59170395","lon":"9.7151815900402"}},{"name":"Grundschule des Schulträgerverbandes Heider Umland in Weddingstedt","id":"SH-0702210","address":"Alter Landweg 2, 25795 Weddingstedt","school_type":"Grundschule","legal_status":1,"fax":"0481 - 4211764","phone":"0481 - 87998","provider":"Grundschulträgerverband Heider Umland","director":"Frau Dethlefs","location":{"lat":"54.2359678","lon":"9.08869884914143"}},{"name":"Landschule an der Eider","id":"SH-0702738","address":"Schulstraße 6, 24582 Wattenbek","school_type":"Grundschule","legal_status":1,"fax":"04322 - 691493","phone":"04322 - 9704","email":"landschule-an-der-eider.wattenbek@schule.landsh.de","provider":"Schulverband Bordesholm","director":"Frau Büssow","location":{"lat":"54.1700058","lon":"10.0549161"}},{"name":"Grundschule Wankendorf und Umgebung","id":"SH-0702609","address":"Schulweg 6, 24601 Wankendorf","school_type":"Grundschule","legal_status":1,"fax":"04326 - 2558","phone":"04394 - 240","email":"grundschule.wankendorf@schule.landsh.de","provider":"Amt Bokhorst-Wankendorf","director":"Herr Lerche","location":{"lat":"54.1154935","lon":"10.2029484"}},{"name":"Grundschule Oldenburg-Land","id":"SH-0702440","address":"Ostseestraße 23, 23758 Wangels","school_type":"Grundschule","legal_status":1,"fax":"04382 - 92272","phone":"04361 - 8237","email":"","provider":"Schulverband Oldenburg-Land","director":"Herr Vaterodt","location":{"lat":"54.2559759","lon":"10.7548517"}},{"name":"Hermann-Claudius-Schule","id":"SH-0702737","address":"Schulstraße 14, 24647 Wasbek","school_type":"Grundschule","legal_status":1,"fax":"04321 - 699346","phone":"04321 - 62141","provider":"Schulverband Wasbek","director":"Frau Allais","location":{"lat":"54.0737227","lon":"9.8975996"}},{"name":"Grundschule Wanderup","id":"SH-0702263","address":"Tarper Straße 19 - 21, 24997 Wanderup","school_type":"Grundschule","legal_status":1,"fax":"- keine Angabe -","phone":"04606 - 238","provider":"Gemeinde Wanderup","director":"Herr Franke","location":{"lat":"54.68852","lon":"9.33807606349499"}},{"name":"Poul-Due-Jensen-Schule","id":"SH-0707605","address":"Neumünsterstraße 22, 23812 Wahlstedt","school_type":"Gemeinschaftsschule ohne Oberstufe","legal_status":1,"fax":"04554 - 991944","phone":"04554 - 2284","provider":"Stadt Wahlstedt","director":"Herr Hübner","location":{"lat":"53.95492485","lon":"10.2065115126228"}},{"name":"Grundschule Wesselburen mit Außenstelle Neuenkirchen","id":"SH-0702212","address":"Ekenesch 15, 25764 Wesselburen","school_type":"Grundschule","legal_status":1,"fax":"04833 - 424010","phone":"04837 - 433","email":"gs-neuenkirchen@esch.co","provider":"Schulverband Büsum-Wesselburen/Gemeinde Neuenkirchen","director":"Herr Küsel","location":{"lat":"54.211903","lon":"8.91630127830598"}},{"name":"Grundschule Wrist","id":"SH-0702928","address":"Am Sportplatz, 25563 Wrist","school_type":"Grundschule","legal_status":1,"fax":"04822 - 95134","phone":"04822 - 95133","provider":"Gemeinde Wrist","director":"Herr Spönemann","location":{"lat":"53.930863","lon":"9.7524274"}},{"name":"Grundschule Wohltorf","id":"SH-0702312","address":"Alter Knick 22, 21521 Wohltorf","school_type":"Grundschule","legal_status":1,"fax":"04104 - 901103","phone":"04104 - 2680","provider":"Gemeinde Wohltorf","director":"Frau Scheel","location":{"lat":"53.5206723","lon":"10.284812"}},{"name":"Dörfergemeinschaftsschule am Struckteich","id":"SH-0702984","address":"Pöhlser Weg 18, 23619 Zarpen","school_type":"Grundschule","legal_status":1,"fax":"04533 - 798698","phone":"04533 - 1445","provider":"Amt Nordstormarn","director":"Frau Hälig","location":{"lat":"53.87471615","lon":"10.5151039533029"}},{"name":"Eilun Feer Skuul","id":"SH-0705355","address":"Rebbelstieg, 25938 Wyk auf Föhr","school_type":"Gymnasium","legal_status":1,"fax":"04681 - 5338","phone":"04681 - 4440","provider":"Amt Föhr-Amrum","director":"Herr Wögens","location":{"lat":"54.6883245","lon":"8.5609508"}},{"name":"Rüm-Hart-Schule","id":"SH-0702411","address":"Süderstraße 24, 25938 Wyk auf Föhr","school_type":"Grundschule","legal_status":1,"fax":"04681 - 50380","phone":"04681 - 2666","provider":"Amt Föhr-Amrum","director":"Frau Weber","location":{"lat":"54.689291","lon":"8.5664694"}},{"name":"Grundschule Witzwort","id":"SH-0702410","address":"Kirchenweg 2, 25889 Witzwort","school_type":"Grundschule","legal_status":1,"fax":"04864 - 271625","phone":"04864 - 684","provider":"Schulverband Witzwort","director":"Herr Meier","location":{"lat":"54.3987615","lon":"8.9861505"}},{"name":"Albert-Schweitzer-Schule","id":"SH-0703559","address":"Mühlenberg 2 a, 24398 Winnemark","school_type":"FöZ mit dem SP geistige Entwicklung","legal_status":1,"fax":"04642 - 9144122","phone":"04642 - 9144111","provider":"St. Nicolaiheim Sundsacker e.V.","director":"Herr Simonsen","location":{"lat":"54.6280646","lon":"9.9381705"}},{"name":"Gemeinschaftsschule des Schulverbandes Wilstermarsch in Wilster","id":"SH-0707653","address":"Am Schulzentrum 3, 25554 Wilster","school_type":"Gemeinschaftsschule ohne Oberstufe","legal_status":1,"fax":"04823 - 92672","phone":"04823 - 337","provider":"Schulverband Wilstermarsch","director":"Frau Krumm-Voeltz","location":{"lat":"53.9237528","lon":"9.3690551"}},{"name":"Wolfgang-Ratke-Schule","id":"SH-0702926","address":"Landrecht 45, 25554 Wilster","school_type":"Grundschule","legal_status":1,"fax":"04823 - 750336","phone":"04823 - 8230","provider":"Schulverband Wilstermarsch","director":"Herr Maaß","location":{"lat":"53.9220827","lon":"9.3693723"}},{"name":"Grundschule des Grundschulträgerverbandes Heider Umland in Wesseln","id":"SH-0702213","address":"Holstenstraße 43, 25746 Wesseln","school_type":"Grundschule","legal_status":1,"fax":"0481 - 7889455","phone":"0481 - 72754","provider":"Gemeinde Wesseln","director":"Frau Amrein-Vornheim","location":{"lat":"54.2093616","lon":"9.07376856257035"}},{"name":"Gemeinschaftsschule des Schulverbandes Wesselburen in Wesselburen","id":"SH-0707210","address":"Dohrnstraße 1, 25764 Wesselburen","school_type":"Gemeinschaftsschule ohne Oberstufe","legal_status":1,"fax":"04833 - 8571","phone":"04833 - 525","provider":"Schulverband Büsum-Wesselburen","director":"Herr Rode","location":{"lat":"54.2160172","lon":"8.92381713517812"}},{"name":"Gemeinschaftsschule der Gemeinde Wentorf in Wentorf bei Hamburg","id":"SH-0707260","address":"Achtern Höben 3, 21465 Wentorf bei Hamburg","school_type":"Gemeinschaftsschule ohne Oberstufe","legal_status":1,"fax":"040 - 720044329","phone":"040 - 72004430","provider":"Gemeinde Wentorf","director":"Frau Wischmeyer","location":{"lat":"53.49530865","lon":"10.2581145488346"}},{"name":"Gymnasium Wentorf","id":"SH-0705303","address":"Hohler Weg 16, 21465 Wentorf bei Hamburg","school_type":"Gymnasium","legal_status":1,"fax":"040 - 72545028","phone":"040 - 72005433","email":"","provider":"Gemeinde Wentorf bei Hamburg","director":"Herr Andersen","location":{"lat":"53.49972275","lon":"10.2467927331877"}},{"name":"Grundschule Wentorf","id":"SH-0702314","address":"Wohltorfer Weg 6, 21465 Wentorf bei Hamburg","school_type":"Grundschule","legal_status":1,"fax":"040 - 720044820","phone":"040 - 72004480","provider":"Gemeinde Wentorf","director":"Frau Witzisk","location":{"lat":"53.4965811","lon":"10.2586329303968"}},{"name":"Norddörferschule Wenningstedt","id":"SH-0702406","address":"Norderweg 2, 25996 Wenningstedt-Braderup (Sylt)","school_type":"Grundschule","legal_status":1,"fax":"04651 - 446445","phone":"04651 - 42276","provider":"Schulverband Norddörfer","director":"Frau Glöckner","location":{"lat":"54.94207445","lon":"8.33455111353012"}},{"name":"Grundschule Munkbrarup","id":"SH-0702265","address":"Hau 1, 24999 Wees","school_type":"Grundschule","legal_status":1,"fax":"04631 - 622292","phone":"04631 - 952","provider":"Amt Langballig","director":"Herr Weidung","location":{"lat":"54.8065375","lon":"9.55462951638718"}},{"name":"Pestalozzischule -FöZ-","id":"SH-0703458","address":"Im Autal 37, 22880 Wedel","school_type":"FöZ mit dem SP Lernen","legal_status":1,"fax":"04103 - 9121920","phone":"04103 - 912190","provider":"Stadt Wedel","director":"Herr Jensen"},{"name":"Gebrüder-Humboldt-Schule","id":"SH-0707415","address":"Rosengarten 18, 22880 Wedel","school_type":"Gemeinschaftsschule mit Oberstufe","legal_status":1,"fax":"04103 - 9121520","phone":"04103 - 912150","provider":"Stadt Wedel","director":"Herr Herwig","location":{"lat":"53.5811434","lon":"9.70858512510595"}},{"name":"Ernst-Barlach-Gemeinschaftsschule","id":"SH-0707417","address":"Tinsdaler Weg 44, 22880 Wedel","school_type":"Gemeinschaftsschule ohne Oberstufe","legal_status":1,"fax":"04103 - 9121620","phone":"04103 - 912160","provider":"Stadt Wedel","director":"Herr Krumme","location":{"lat":"53.5741939","lon":"9.71359289695901"}},{"name":"Johann-Rist-Gymnasium","id":"SH-0705456","address":"Am Redder 8, 22880 Wedel","school_type":"Gymnasium","legal_status":1,"fax":"04103 - 9121420","phone":"04103 - 912140","provider":"Stadt Wedel","director":"Herr Rohde","location":{"lat":"53.5861613","lon":"9.6999003"}},{"name":"Albert-Schweitzer-Schule","id":"SH-0702545","address":"Pulverstraße 67 a, 22880 Wedel","school_type":"Grundschule","legal_status":1,"fax":"04103 - 9121820","phone":"04103 - 912180","provider":"Stadt Wedel","director":"Frau Akgün","location":{"lat":"53.5736352","lon":"9.7164742"}},{"name":"Grundschule Altstadt","id":"SH-0702546","address":"Schulstraße 8, 22880 Wedel","school_type":"Grundschule","legal_status":1,"fax":"04103 - 9121320","phone":"04103 - 912130","provider":"Stadt Wedel","director":"Frau Bechler","location":{"lat":"53.5821345","lon":"9.6995492"}},{"name":"Helen-Keller-Schule","id":"SH-0702819","address":"Scharnhorststrasse 6, 23812 Wahlstedt","school_type":"Grundschule","legal_status":1,"fax":"04554 - 991942","phone":"04554 - 6072540","provider":"Stadt Wahlstedt","director":"Frau Deeg","location":{"lat":"53.95783315","lon":"10.2064889257894"}},{"name":"Grundschule des Amtes Schenefeld in Wacken","id":"SH-0702924","address":"Bokelrehmer Straße 51, 25596 Wacken","school_type":"Grundschule","legal_status":1,"fax":"04827 - 932381","phone":"04827 - 677","provider":"Amt Schenefeld","director":"Frau Rehder","location":{"lat":"54.0273415","lon":"9.37499026403403"}},{"name":"Grundschule Mittelschwansen","id":"SH-0702681","address":"Kirchstraße 12, 24369 Waabs","school_type":"Grundschule","legal_status":1,"fax":"04352 - 919050","phone":"04352 - 91903","provider":"Amt Schlei-Ostsee","director":"Frau Medler","location":{"lat":"54.5354418","lon":"9.9883248"}},{"name":"Grund- und Gemeinschaftsschule des Schulverbandes Viöl in Viöl mit Außenstelle in Haselund","id":"SH-0707302","address":"Gartenstraße 4 - 8, 25884 Viöl","school_type":"Gemeinschaftsschule ohne Oberstufe","legal_status":1,"fax":"04843 - 208181","phone":"04847 - 411","email":"grund-und-gemeinschaftsschule.vioel@schule.landsh.de","provider":"Schulverband Viöl","director":"Herr Kinder","location":{"lat":"54.5705774","lon":"9.17884137811849"}},{"name":"Förderzentrum Region Uetersen","id":"SH-0703457","address":"Birkenallee, 25436 Uetersen","school_type":"FöZ mit dem SP Lernen","legal_status":1,"fax":"04122 - 460164","phone":"04122 - 460160","provider":"Stadt Uetersen","director":"Frau Michaelsen","location":{"lat":"53.6880105","lon":"9.6828935"}},{"name":"Ludwig-Meyn-Gymnasium","id":"SH-0705455","address":"Seminarstraße 10, 25436 Uetersen","school_type":"Gymnasium","legal_status":1,"fax":"04122 - 460333","phone":"04122 - 46030","provider":"Stadt Uetersen","director":"Herr Stroh","location":{"lat":"53.6858762","lon":"9.65566306000763"}},{"name":"Rosenstadtschule Uetersen","id":"SH-0707421","address":"Seminarstraße 10b-12, 25436 Uetersen","school_type":"Gemeinschaftsschule ohne Oberstufe","legal_status":1,"fax":"04122 - 460265","phone":"04122 - 460260","provider":"Stadt Uetersen","director":"Herr Balasus","location":{"lat":"53.6859367","lon":"9.65886436345476"}},{"name":"Friedrich-Ebert-Grundschule","id":"SH-0702542","address":"Berliner Straße 19, 25436 Uetersen","school_type":"Grundschule","legal_status":1,"fax":"04122 - 716764","phone":"04122 - 716760","provider":"Stadt Uetersen","director":"Frau Schlüter","location":{"lat":"53.6854181","lon":"9.67299126909824"}},{"name":"Grundschule Birkenallee","id":"SH-0702544","address":"Birkenallee 44, 25436 Uetersen","school_type":"Grundschule","legal_status":1,"fax":"04122 - 460140","phone":"04122 - 460130","provider":"Stadt Uetersen","director":"Herr Rix","location":{"lat":"53.6880105","lon":"9.6828935"}},{"name":"Eider-Treene-Schule","id":"SH-0707304","address":"Badallee 14, 25832 Tönning","school_type":"Gemeinschaftsschule mit Oberstufe","legal_status":1,"fax":"04861 - 610018","phone":"04881 - 651","email":"schulleitung@ETS-Friedrichstadt.de","provider":"Stadt Tönning","director":"Frau Heß","location":{"lat":"54.3124874","lon":"8.93535776735987"}},{"name":"Schule am Ostertor - Grundschule mit Förderzentrumsteil der Stadt Tönning","id":"SH-0702404","address":"Hochsteg 26, 25832 Tönning","school_type":"Grundschule","legal_status":1,"fax":"04861 - 968013","phone":"04864 - 466","email":"schule-oldenswort@t-online.de","provider":"Stadt Tönning","director":"Herr Müller-Veerse","location":{"lat":"54.31912665","lon":"8.9452382593507"}},{"name":"Hahnheide-Schule","id":"SH-0707707","address":"Im Raum 23, 22946 Trittau","school_type":"Gemeinschaftsschule mit Oberstufe","legal_status":1,"fax":"04154 - 807819","phone":"04154 - 80780","provider":"Schulverband Trittau","director":"Herr Hentschel","location":{"lat":"53.6186004","lon":"10.3981037466363"}},{"name":"Fritz-Reuter-Schule","id":"SH-0702541","address":"Königsberger Straße 7, 25436 Tornesch","school_type":"Grundschule","legal_status":1,"fax":"04122 - 9548914","phone":"04122 - 954890","provider":"Stadt Tornesch","director":"Frau Rechter","location":{"lat":"53.7021736","lon":"9.7171479"}},{"name":"Johannes-Schwennesen-Schule","id":"SH-0702552","address":"Esinger Straße 102, 25436 Tornesch","school_type":"Grundschule","legal_status":1,"fax":"04122 - 54923","phone":"04122 - 53118","provider":"Stadt Tornesch","director":"Frau Wieduwilt","location":{"lat":"53.689916","lon":"9.7233813"}},{"name":"Gemeinschaftsschule Timmendorfer Strand","id":"SH-0707363","address":"Poststraße 36 a, 23669 Timmendorfer Strand","school_type":"Gemeinschaftsschule ohne Oberstufe","legal_status":1,"fax":"04503 - 7027929","phone":"04503 - 31216","email":"GuG-strand.timmendorfer-strand@schule.landsh.de","provider":"Gemeinde Timmendorfer Strand","director":"Herr Rath","location":{"lat":"53.9970075","lon":"10.7817172"}},{"name":"Ostsee-Gymnasium","id":"SH-0705406","address":"Am Kuhlbrook, 23669 Timmendorfer Strand","school_type":"Gymnasium","legal_status":1,"fax":"04503 - 5030","phone":"04503 - 31247","provider":"Gemeinde Timmendorfer Strand","director":"Herr Bartolf","location":{"lat":"54.0080057","lon":"10.7707663"}},{"name":"Grundschule des Schulverbandes Nortorf in Timmaspe","id":"SH-0702733","address":"Zum Sportplatz 14, 24644 Timmaspe","school_type":"Grundschule","legal_status":1,"fax":"04392 - 690839","phone":"04392 - 5106","provider":"Schulverband Nortorf","director":"Herr Pauschardt","location":{"lat":"54.14349425","lon":"9.89212095815898"}},{"name":"Grund- und Gemeinschaftsschule des Amtes Kirchspiellandgemeinden Eider in Tellingstedt","id":"SH-0707203","address":"Schulweg 4, 25782 Tellingstedt","school_type":"Gemeinschaftsschule ohne Oberstufe","legal_status":1,"fax":"04838 - 7044929","phone":"04838 - 704490","provider":"Amt KLG Eider","director":"Frau Altrock","location":{"lat":"54.2184729","lon":"9.28028031682508"}},{"name":"Alexander-Behm-Schule","id":"SH-0707556","address":"Klaus-Groth-Straße 29, 24963 Tarp","school_type":"Gemeinschaftsschule ohne Oberstufe","legal_status":1,"fax":"04638 - 894623","phone":"04638 - 89460","provider":"Schulverband Tarp-Jerrishoe","director":"Herr Kirschstein","location":{"lat":"54.6677687","lon":"9.40214583648412"}},{"name":"Grundschule Tangstedt","id":"SH-0702540","address":"Dorfstraße 100, 25499 Tangstedt","school_type":"Grundschule","legal_status":1,"fax":"04101 - 8451670","phone":"04101 - 25141","provider":"Gemeinde Tangstedt (PI)","director":"Frau Hansen","location":{"lat":"53.6800094903901","lon":"9.85143741447232"}},{"name":"Grundschule Tangstedt","id":"SH-0702978","address":"Schulstraße 13, 22889 Tangstedt","school_type":"Grundschule","legal_status":1,"fax":"04109 - 250134","phone":"04109 - 250133","provider":"Gemeinde Tangstedt","director":"Herr Conrad","location":{"lat":"53.7319119","lon":"10.0846518"}},{"name":"Förderzentrum Angeln","id":"SH-0703252","address":"Schulstraße 4 a, 24966 Sörup","school_type":"FöZ mit dem SP Lernen","legal_status":1,"fax":"04635 - 1455","phone":"04642 - 2727","email":"info@foerderzentrum-kappeln.de","provider":"Schulverband Mittelangeln","director":"Herr Hinrichsen","location":{"lat":"54.7154259","lon":"9.6657655"}},{"name":"Grundschule Südensee-Schule","id":"SH-0702259","address":"Schulstraße 4, 24966 Sörup","school_type":"Grundschule","legal_status":1,"fax":"04635 - 295424","phone":"04635 - 432","provider":"Gemeinde Sörup","director":"Frau Fries","location":{"lat":"54.71637505","lon":"9.6669540662"}},{"name":"Grundschule der Gemeinde Süsel in Süsel","id":"SH-0702475","address":"Am Schulzentrum 3, 23701 Süsel","school_type":"Grundschule","legal_status":1,"fax":"04524 - 705902","phone":"04524 - 8211","provider":"Gemeinde Süsel","director":"Frau Popp-Dreyer","location":{"lat":"54.0787267","lon":"10.7105435"}},{"name":"Schulzentrum Sylt","id":"SH-0705354","address":"Tonderner Straße 12, 25980 Sylt","school_type":"Gymnasium","legal_status":1,"fax":"04651 - 27017","phone":"04651 - 9574314","provider":"Schulverband Sylt","director":"Frau Detlefsen","location":{"lat":"54.9165561","lon":"8.3136865"}},{"name":"Boy-Lornsen-Grundschule  - Grundschule in Tinnum -","id":"SH-0702400","address":"Boy-Peter-Eben-Weg 2, 25980 Sylt","school_type":"Grundschule","legal_status":1,"fax":"- keine Angabe -","phone":"- keine Angabe -","provider":"Gemeinde Sylt","director":"Frau Bengsch","location":{"lat":"54.89941155","lon":"8.3238174"}},{"name":"Fief-Dörper-School","id":"SH-0702207","address":"Kantstraße 10, 25727 Süderhastedt","school_type":"Grundschule","legal_status":1,"fax":"04830 - 901831","phone":"04825 - 8793","email":"fief-doerper-school-suederhastedt@schule.landsh.de","provider":"Amt Burg - St. Michaelisdonn","director":"Frau Harders","location":{"lat":"54.0475675","lon":"9.21256250637772"}},{"name":"Grundschule Föhr-Land","id":"SH-0702395","address":"Am Haag 4a, 25938 Süderende","school_type":"Grundschule","legal_status":1,"fax":"04683 - 963434","phone":"04681 - 2821","email":"grundschule-foehr-land.midlum@schule.landsh.de","provider":"Amt Föhr-Amrum","director":"Frau Filter"},{"name":"Schule am Markt","id":"SH-0703607","address":"Holmer Straße 2, 24392 Süderbrarup","school_type":"FöZ mit dem SP geistige Entwicklung","legal_status":1,"fax":"04641 - 986119-99","phone":"04641 - 986119-14","provider":"Kreis Schleswig-Flensburg","director":"Frau Puzich","location":{"lat":"54.63611175","lon":"9.78061677372827"}},{"name":"Gemeinschaftsschule mit Förderzentrumsteil des Amtes Süderbrarup in Süderbrarup","id":"SH-0707559","address":"Kappelner Straße, 24392 Süderbrarup","school_type":"Gemeinschaftsschule ohne Oberstufe","legal_status":1,"fax":"04641 - 98","phone":"04641 - 98","provider":"Amt Süderbrarup","director":"Herr Lausen","location":{"lat":"54.6386641","lon":"9.7903076"}},{"name":"Brarup-Schule","id":"SH-0702792","address":"Bismarckstraße 38, 24392 Süderbrarup","school_type":"Grundschule","legal_status":1,"fax":"04641 - 970184","phone":"04641 - 2386","provider":"Amt Süderbrarup","director":"Herr Weidung","location":{"lat":"54.63729075","lon":"9.77750591479206"}},{"name":"Grundschule Strande","id":"SH-0702728","address":"Dänischenhagener Straße 31, 24229 Strande","school_type":"Grundschule","legal_status":1,"fax":"04349 - 913759","phone":"04349 - 357","provider":"Schulverband \"Küste dänischer Wohld\"","director":"Frau Theel","location":{"lat":"54.4396689","lon":"10.1616601"}},{"name":"Gerhard-Hilgendorf-Schule,Gemeinschaftsschule der Gemeinde Stockelsdorf in Stockelsdorf","id":"SH-0707355","address":"Rensefelder Weg 2 g, 23617 Stockelsdorf","school_type":"Gemeinschaftsschule ohne Oberstufe","legal_status":1,"fax":"0451 - 4992832","phone":"0451 - 495760","provider":"Gemeinde Stockelsdorf","director":"Herr Puls","location":{"lat":"53.9050747","lon":"10.6584179"}},{"name":"Gerhart-Hauptmann-Schule","id":"SH-0702472","address":"Breslauer Straße 12, 23617 Stockelsdorf","school_type":"Grundschule","legal_status":1,"fax":"0451 - 8819672","phone":"0451 - 493619","provider":"Gemeinde Stockelsdorf","director":"Frau Deecke","location":{"lat":"53.8982785","lon":"10.6608465"}},{"name":"Grundschule Ravensbusch","id":"SH-0702474","address":"Segeberger Straße 89, 23617 Stockelsdorf","school_type":"Grundschule","legal_status":1,"fax":"0451 - 4982843","phone":"0451 - 491343","provider":"Gemeinde Stockelsdorf","director":"Frau Gunkel","location":{"lat":"53.8861892","lon":"10.6519314"}},{"name":"Erich Kästner Grundschule","id":"SH-0702478","address":"Dorfstraße 30, 23617 Stockelsdorf","school_type":"Grundschule","legal_status":1,"fax":"0451 - 4993419","phone":"0451 - 4993548","provider":"Gemeinde Stockelsdorf","director":"Frau Sill","location":{"lat":"53.9300154","lon":"10.60509"}},{"name":"Heinrich-Andresen-Schule - Gemeinschaftsschule Geltinger Bucht","id":"SH-0707554","address":"Am Schulzentrum 5, 24996 Sterup","school_type":"Gemeinschaftsschule ohne Oberstufe","legal_status":1,"fax":"04637 - 963258","phone":"04637 - 616","provider":"Amt Geltinger Bucht","director":"Herr Lausen","location":{"lat":"54.730238","lon":"9.74489682959035"}},{"name":"Grundschule Sterup","id":"SH-0702266","address":"Schulstraße 3, 24996 Sterup","school_type":"Grundschule","legal_status":1,"fax":"04637 - 963539","phone":"04637 - 1916","provider":"Amt Geltinger Bucht","director":"Frau Müller","location":{"lat":"54.72893095","lon":"9.74097623193668"}},{"name":"Grundschule Sterley","id":"SH-0702309","address":"Schulstraße 5, 23883 Sterley","school_type":"Grundschule","legal_status":1,"fax":"04545 - 1495","phone":"04545 - 380","provider":"Schulverband Sterley","director":"Herr Hansen","location":{"lat":"53.62069715","lon":"10.8243916149436"}},{"name":"Schleidörferschule","id":"SH-0702790","address":"Dorfstraße 4, 24888 Steinfeld","school_type":"Grundschule","legal_status":1,"fax":"04641 - 3323","phone":"04641 - 3323","provider":"Amt Süderbrarup","director":"Herr Schäfing","location":{"lat":"54.6012173","lon":"9.7462597187238"}},{"name":"Grundschule Mollhagen","id":"SH-0702964","address":"Eichedeer Straße 16, 22964 Steinburg","school_type":"Grundschule","legal_status":1,"fax":"04534 - 7487","phone":"04534 - 421","provider":"Schulverband Mollhagen","director":"Frau Gerdes","location":{"lat":"53.70470015","lon":"10.3862558703004"}},{"name":"Grundschule Steinbergkirche","id":"SH-0702260","address":"Hattlundmoor 15, 24972 Steinbergkirche","school_type":"Grundschule","legal_status":1,"fax":"04632 - 87292","phone":"04632 - 8505","provider":"Amt Geltinger Bucht","director":"Frau Keyser","location":{"lat":"54.7527002","lon":"9.75410784204887"}},{"name":"Grundschule Stapelfeld","id":"SH-0702977","address":"Von-Eichendorff-Weg 3, 22145 Stapelfeld","school_type":"Grundschule","legal_status":1,"fax":"040 - 6777868","phone":"040 - 6773845","provider":"Schulverband Stapelfeld","director":"Frau Grot","location":{"lat":"53.60215815","lon":"10.2124355945883"}},{"name":"Erich Kästner Schule Silberstedt","id":"SH-0707564","address":"Malerweg 17, 24887 Silberstedt","school_type":"Gemeinschaftsschule ohne Oberstufe","legal_status":1,"fax":"04626 - 1395","phone":"04626 - 230","provider":"Amt Arensharde","director":"Herr Witt","location":{"lat":"54.5161452","lon":"9.37258291332875"}},{"name":"Grund- und Gemeinschaftsschule der Gemeinde Schönkirchen in Schönkirchen -Schule im Augustental -","id":"SH-0707455","address":"Augustental 29, 24232 Schönkirchen","school_type":"Gemeinschaftsschule ohne Oberstufe","legal_status":1,"fax":"04348 - 916611","phone":"04348 - 91660","provider":"Gemeinde Schönkirchen","director":"Frau Märzhäuser","location":{"lat":"54.33352215","lon":"10.2163833182114"}},{"name":"Gemeinschaftsschule Probstei","id":"SH-0707451","address":"Friedhofsweg 6, 24217 Schönberg (Holstein)","school_type":"Gemeinschaftsschule mit Oberstufe","legal_status":1,"fax":"04344 - 1677","phone":"04344 - 1618","provider":"Schulverband Probstei","director":"Herr Wittmaack","location":{"lat":"54.3979304","lon":"10.370821"}},{"name":"Grundschule an den Salzwiesen","id":"SH-0702602","address":"Schulweg 3, 24217 Schönberg (Holstein)","school_type":"Grundschule","legal_status":1,"fax":"04344 - 3571","phone":"04344 - 1645","provider":"Schulverband Probstei","director":"Herr Schettler","location":{"lat":"54.396862","lon":"10.3714078"}},{"name":"Landesförderzentrum für körperliche und motorische Entwicklung Schwentinental","id":"SH-0703512","address":"Henry-Dunant-Straße 6 - 10, 24223 Schwentinental","school_type":"FöZ mit dem SP körperliche und motorische Entwicklung","legal_status":1,"fax":"++494307 - 909302","phone":"++494307 - 909301","provider":"Land Schleswig-Holstein","director":"Herr Dräger","location":{"lat":"54.2877339","lon":"10.2111424"}},{"name":"Albert-Schweitzer-Schule","id":"SH-0707452","address":"Zum See 15, 24223 Schwentinental","school_type":"Gemeinschaftsschule ohne Oberstufe","legal_status":1,"fax":"04307 - 939115","phone":"04384 - 233","email":"schule-am-selenter-see.selent@schule.landsh.de","provider":"Stadt Schwentinental / Amt Selent-Schlesen","director":"Herr Reimer","location":{"lat":"54.2840647","lon":"10.2437935952631"}},{"name":"Astrid-Lindgren-Grundschule","id":"SH-0702584","address":"Dorfstraße 99 - 101, 24223 Schwentinental","school_type":"Grundschule","legal_status":1,"fax":"0431 - 7900863","phone":"0431 - 7900860","provider":"Stadt Schwentinental","director":"Herr Deutschendorf","location":{"lat":"54.2785722","lon":"10.2414823"}},{"name":"Grundschule am Schwentinepark","id":"SH-0702598","address":"Zum See 11, 24223 Schwentinental","school_type":"Grundschule","legal_status":1,"fax":"04307 - 7748","phone":"04307 - 6621","provider":"Stadt Schwentinental","director":"Frau von Ketelhudt","location":{"lat":"54.2832324","lon":"10.2437498"}},{"name":"Grundschule Surendorf","id":"SH-0702730","address":"An der Schule 11, 24229 Schwedeneck","school_type":"Grundschule","legal_status":1,"fax":"04308 - 187620","phone":"04308 - 187611","provider":"Schulverband \"Küste Dänischer Wohld\"","director":"Herr Ochernal","location":{"lat":"54.4723441","lon":"10.0749519"}},{"name":"Centa-Wulf-Schule","id":"SH-0703306","address":"Cesenaticostraße 13, 21493 Schwarzenbek","school_type":"FöZ mit dem SP Lernen","legal_status":1,"fax":"04151 - 896055","phone":"04151 - 896051","provider":"Stadt Schwarzenbek","director":"Frau Hüfner","location":{"lat":"53.5084678","lon":"10.49248515"}},{"name":"Grund- und Gemeinschaftsschule der Stadt Schwarzenbek in Schwarzenbek","id":"SH-0707256","address":"Berliner Straße 12, 21493 Schwarzenbek","school_type":"Gemeinschaftsschule ohne Oberstufe","legal_status":1,"fax":"04151 - 89989617","phone":"04151 - 8998960","email":"sekretariat@gemeinschaftsschule-schwarzenbek.de","provider":"Stadt Schwarzenbek","director":"Herr Hartung","location":{"lat":"53.5003415","lon":"10.47827315"}},{"name":"Gymnasium Schwarzenbek - Europaschule","id":"SH-0705302","address":"Buschkoppel 7, 21493 Schwarzenbek","school_type":"Gymnasium","legal_status":1,"fax":"04151 - 8790-813","phone":"04151 - 8790-800","provider":"Stadt Schwarzenbek","director":"Frau Roschlaub","location":{"lat":"53.5069483","lon":"10.4874691776506"}},{"name":"Georg-Wilhelm-Pfingsten-Schule","id":"SH-0703604","address":"Lutherstraße 14, 24837 Schleswig","school_type":"FöZ mit dem SP Hören","legal_status":1,"fax":"04621 - 807111","phone":"04621 - 8070","provider":"Land Schleswig-Holstein","director":"Herr Degner","location":{"lat":"54.5180349","lon":"9.56028819331173"}},{"name":"Landesförderzentrum Sehen","id":"SH-0703609","address":"Lutherstraße 14, 24837 Schleswig","school_type":"FöZ mit dem SP Sehen","legal_status":1,"fax":"04621 - 807405","phone":"04621 - 8075","provider":"Land Schleswig-Holstein","director":"Herr Adrian","location":{"lat":"54.5180349","lon":"9.56028819331173"}},{"name":"Dannewerkschule","id":"SH-0707553","address":"Erikstraße 50, 24837 Schleswig","school_type":"Gemeinschaftsschule ohne Oberstufe","legal_status":1,"fax":"04621 - 35689","phone":"04621 - 3820250","provider":"Stadt Schleswig","director":"Frau Schönberg","location":{"lat":"54.49658","lon":"9.5279516"}},{"name":"Förderzentrum Schleswig-Kropp","id":"SH-0703603","address":"Flensburger Straße 120, 24837 Schleswig","school_type":"FöZ mit dem SP Lernen","legal_status":1,"fax":"04621 - 988841","phone":"04624 - 450367","email":"","provider":"Stadt Schleswig","director":"Herr Krackert","location":{"lat":"54.5125304","lon":"9.5469833"}},