[{"name":"Private Abendrealschule für Berufstätige der Gesellschaft f.Erwachsenenbildung e.V., Regensburg","id":"BY-684","address":"Weinweg 6 93049 Regensburg","school_type":"Abendrealschule","fax":"0941 26628","phone":"0941 4615354","website":null,"location":{"lat":"49.0248616","lon":"12.076199878104"}},{"name":"Privates Abendgymnasium Würzburg Service Center","id":"BY-347","address":"Zellerstr. 8 97276 Margetshöchheim","school_type":"Abendgymnasium","fax":"0931 4679020","phone":"0931 467900","website":"http://www.abendgymnasien.de","location":{"lat":"49.828896","lon":"9.8654202"}},{"name":"Von-Pelkhoven-Schule St.Ludwig, Berufsschule zur sonderpäd.Förd.m.Förderschwerp.soz.u.emot.Entwickl","id":"BY-7277","address":"Kloster St. Ludwig 97509 Kolitzheim","school_type":"Berufsschule zur sonderpädagogischen Förderung","phone":"09385 860","website":"http://www.antonia-werr-zentrum.de","location":{"lat":"49.9253539","lon":"10.1855043"}},{"name":"Staatliche Berufsoberschule Marktheidenfeld","id":"BY-831","address":"Friedenstraße 44 97828 Marktheidenfeld","school_type":"Berufsoberschule","fax":"09391 917429","phone":"09391 2257","website":"http://www.fosbos-marktheidenfeld.de","location":{"lat":"49.8492421","lon":"9.60443197217915"}},{"name":"Privates Lyzeum der Republik Griechenland in Schweinfurt","id":"BY-1032","address":"Wirsingstr. 7 97424 Schweinfurt","school_type":"Ausländische Schule","phone":"09721 804626","website":null,"location":{"lat":"50.03557","lon":"10.2079751"}},{"name":"Private Montessori-Volksschule Peißenberg","id":"BY-2269","address":"Wörther-Kirch-Str. 10 82380 Peißenberg","school_type":"Grund- und Teilhauptschule","fax":"08803 4428","phone":"08803 60603","website":"http://www.montessori-schule.com","location":{"lat":"47.789564","lon":"11.0653229"}},{"name":"Hefner-Alteneck-Volksschule Aschaffenburg","id":"BY-7506","address":"Bavariastr. 39 63743 Aschaffenburg","school_type":"Grund- und Hauptschule","fax":"06021 970086","phone":"06021 970129","website":"http://www.hefner-alteneck-vs.de","location":{"lat":"49.9630836","lon":"9.1514702"}},{"name":"Volksschule Glattbach","id":"BY-7599","address":"Am Scharfen Eck 3 63864 Glattbach","school_type":"Grund- und Hauptschule","fax":"06021 410931","phone":"06021 410930","website":"http://www.vsglattbach.de","location":{"lat":"50.0065356","lon":"9.1480785"}},{"name":"Montessori-Fachoberschule des Montessori-Schule Rosenheim-Rohrdorf Fördervereins e.V. in Rohrdorf","id":"BY-933","address":"Untere Dorfstr. 14 83101 Rohrdorf","school_type":"Fachoberschule","website":null},{"name":"Theresien-Gymnasium München","id":"BY-177","address":"Kaiser-Ludwig-Platz 3 80336 München","school_type":"Gymnasium","fax":"089 54412717","phone":"089 5441270","website":"http://www.thg.musin.de","location":{"lat":"48.1319052","lon":"11.5564058"}},{"name":"Nymphenburger Gymnasium München des Schulvereins Ernst Adam e.V.","id":"BY-208","address":"Sadelerstr. 10 80638 München","school_type":"Gymnasium","fax":"089 15912130","phone":"089 159120","website":"http://www.nymphenburger-schulen.de","location":{"lat":"48.1657192","lon":"11.521660244449"}},{"name":"Maximiliansgymnasium München","id":"BY-176","address":"Karl-Theodor-Str. 9 80803 München","school_type":"Gymnasium","fax":"089 38016840","phone":"089 3801680","website":"http://www.maxgym.musin.de","location":{"lat":"48.16496775","lon":"11.5849008659119"}},{"name":"Städtisches Elsa-Brändström-Gymnasium München","id":"BY-193","address":"Ebenböckstr. 1 81241 München","school_type":"Gymnasium","fax":"089 89601842","phone":"089 8960180","website":"http://www.elsa.musin.de"},{"name":"Ludwigsgymnasium München","id":"BY-175","address":"Fürstenrieder Str. 159a 81377 München","school_type":"Gymnasium","fax":"089 7193472","phone":"089 7145511","website":"http://www.ludwigsgymnasium-muenchen.de","location":{"lat":"48.12213115","lon":"11.505298552044"}},{"name":"Gymnasium Pullach","id":"BY-261","address":"Hans-Keis-Straße 61 82049 Pullach","school_type":"Gymnasium","fax":"089 749753299","phone":"089 7497530","website":"http://www.gymnasium-pullach.de","location":{"lat":"48.066418","lon":"11.5262870196743"}},{"name":"Gymnasium Starnberg","id":"BY-295","address":"Rheinlandstraße 2 82319 Starnberg","school_type":"Gymnasium","fax":"08151 913090","phone":"08151 91300","website":"http://www.gymnasium-starnberg.com","location":{"lat":"48.00343165","lon":"11.3446516301748"}},{"name":"Finsterwalder-Gymnasium Rosenheim","id":"BY-274","address":"Königstr. 25 83022 Rosenheim","school_type":"Gymnasium","fax":"08031 362023","phone":"08031 361924-5","website":"http://www.schulen.rosenheim.de/finsterwaldergym","location":{"lat":"47.8529762","lon":"12.1313001672797"}},{"name":"Johannes-Heidenhain-Gymnasium Traunreut","id":"BY-305","address":"Adalbert-Stifter-Straße 36 83301 Traunreut","school_type":"Gymnasium","fax":"08669 5913","phone":"08669 2405","website":"http://www.jhg-traunreut.de","location":{"lat":"47.95850675","lon":"12.5963317590825"}},{"name":"Gabriel-von-Seidl-Gymnasium Bad Tölz","id":"BY-29","address":"Hindenburgstraße 26 83646 Bad Tölz","school_type":"Gymnasium","fax":"08041 8853","phone":"08041 9740","website":"http://www.gvs-gymnasium-bad-toelz.de"},{"name":"Gymnasium der Schulstiftung Seligenthal Landshut","id":"BY-148","address":"Bismarckplatz 14 84034 Landshut","school_type":"Gymnasium","fax":"0871 821205","phone":"0871 821200","website":"http://www.gymnasium.seligenthal.de","location":{"lat":"48.5421447","lon":"12.1484027"}},{"name":"Kurfürst-Maximilian-Gymnasium Burghausen","id":"BY-48","address":"Kanzelmüllerstraße 90 1/2 84489 Burghausen","school_type":"Gymnasium","fax":"08677 9743-10","phone":"08677 9743-0","website":"http://www.kumax-gym.de","location":{"lat":"48.16149915","lon":"12.8337708749103"}},{"name":"Gnadenthal-Gymnasium Ingolstadt der Diözese Eichstätt","id":"BY-126","address":"Kupferstr. 23 85049 Ingolstadt","school_type":"Gymnasium","fax":"0841 93870-31","phone":"0841 9387030","website":"http://www.gnadenthal-gymnasium.de","location":{"lat":"48.76540735","lon":"11.4218037492003"}},{"name":"Josef-Hofmiller-Gymnasium Freising","id":"BY-85","address":"Vimystr. 14 85354 Freising","school_type":"Gymnasium","fax":"08161 971030","phone":"08161 97100","website":"http://www.johogym-freising.de","location":{"lat":"48.405581","lon":"11.7425892951488"}},{"name":"Gymnasium Kirchheim b.München","id":"BY-971","address":"Heimstettener Str. 3 85551 Kirchheim","school_type":"Gymnasium","fax":"089 9037198","phone":"089 90310-24, 25","website":"http://www.gymnasium-kirchheim.de"},{"name":"Gymnasium bei St.Stephan Augsburg","id":"BY-18","address":"Gallusplatz 2 86152 Augsburg","school_type":"Gymnasium","fax":"0821 32418505","phone":"0821 324-18500","website":"http://www.st-stephan.de","location":{"lat":"48.3759893","lon":"10.8982484950036"}},{"name":"Simpert-Kraemer-Gymnasium Krumbach","id":"BY-141","address":"Jochnerstraße 30 86381 Krumbach","school_type":"Gymnasium","fax":"08282 896130","phone":"08282 89610","website":"http://www.skg.krumbach.de","location":{"lat":"48.24365045","lon":"10.3555524320475"}},{"name":"Ignaz-Kögler-Gymnasium Landsberg am Lech","id":"BY-951","address":"Lechstraße 6 86899 Landsberg","school_type":"Gymnasium","fax":"08191 65710865","phone":"08191 657108-0","website":"http://www.ikg-landsberg.de","location":{"lat":"48.0525661","lon":"10.8744304"}},{"name":"Marien-Gymnasium Kaufbeuren d. Schulwerks d. Diözese Augsburg","id":"BY-130","address":"Kemnater Straße 19 87600 Kaufbeuren","school_type":"Gymnasium","fax":"08341 12341","phone":"08341 2341","website":"http://www.marien-gymnasium.de","location":{"lat":"47.8817024","lon":"10.611374"}},{"name":"Rupert-Ness-Gymnasium Ottobeuren","id":"BY-249","address":"Bergstraße 80 87724 Ottobeuren","school_type":"Gymnasium","fax":"08332 922420","phone":"08332 922410","website":"http://www.gym-rs-ottobeuren.de","location":{"lat":"47.9469559","lon":"10.2975885"}},{"name":"Illertal-Gymnasium Vöhringen","id":"BY-395","address":"Zum Sportplatz 17 89269 Vöhringen Illerzell","school_type":"Gymnasium","fax":"07307 939610","phone":"07307 939600","website":"http://www.illertal-gymnasium.de","location":{"lat":"48.3024636","lon":"10.0530169891138"}},{"name":"Willstätter-Gymnasium Nürnberg","id":"BY-233","address":"Innerer Laufer Platz 11 90403 Nürnberg","school_type":"Gymnasium","fax":"0911 2447454","phone":"0911 227985","website":"http://www.willstaetter-gymnasium.de","location":{"lat":"49.456333","lon":"11.0835428"}},{"name":"Melanchthon-Gymnasium Nürnberg","id":"BY-231","address":"Sulzbacher Str. 32 90489 Nürnberg","school_type":"Gymnasium","fax":"0911 2315558","phone":"0911 2315540","website":"http://www.melanchthon-gymnasium.de","location":{"lat":"49.4575287","lon":"11.0940226466709"}},{"name":"Wolfgang-Borchert-Gymnasium Langenzenn","id":"BY-966","address":"Sportplatzstraße 2 90579 Langenzenn","school_type":"Gymnasium","fax":"09101 90418-21","phone":"09101 90418-0, -10","website":"http://www.wbg-lgz.de","location":{"lat":"49.4923831","lon":"10.7800857136846"}},{"name":"Adam-Kraft-Gymnasium Schwabach","id":"BY-282","address":"Bismarckstraße 6 91126 Schwabach","school_type":"Gymnasium","fax":"09122 690555","phone":"09122 69050","website":"http://www.akg.softpoint.de","location":{"lat":"49.32637725","lon":"11.01959420351"}},{"name":"Friedrich-Alexander-Gymnasium Neustadt a.d.Aisch","id":"BY-225","address":"Comeniusstraße 4 91413 Neustadt","school_type":"Gymnasium","fax":"09161 886955","phone":"09161 886911","website":"http://www.fag-neustadt-aisch.de","location":{"lat":"49.574415","lon":"10.6122164"}},{"name":"Werner-von-Siemens-Gymnasium Weißenburg","id":"BY-324","address":"An der Hagenau 24 91781 Weißenburg","school_type":"Gymnasium","fax":"09141 861726","phone":"09141 86170","website":"http://www.wvsgym.de","location":{"lat":"49.0254032","lon":"10.9770277917419"}},{"name":"Johann-Andreas-Schmeller-Gymnasium Nabburg","id":"BY-218","address":"Eichenweg 3 92507 Nabburg","school_type":"Gymnasium","fax":"09433 204810","phone":"09433 20480","website":"http://www.jas-gymnasium.de","location":{"lat":"49.45319645","lon":"12.1740612889061"}},{"name":"Albertus-Magnus-Gymnasium Regensburg","id":"BY-263","address":"Hans-Sachs-Str. 2 93049 Regensburg","school_type":"Gymnasium","fax":"0941 5074043","phone":"0941 5074042","website":"http://www.amg-regensburg.de","location":{"lat":"49.0231784","lon":"12.0757696"}},{"name":"Robert-Schuman-Gymnasium Cham","id":"BY-52","address":"Pfarrer-Lukas-Straße 36 93413 Cham","school_type":"Gymnasium","fax":"09971 8580511","phone":"09971 858050","website":"http://www.rsg-cham.de","location":{"lat":"49.2236985","lon":"12.6672771"}},{"name":"Gymnasium Zwiesel","id":"BY-341","address":"Dr.-Schott-Str. 54 94227 Zwiesel","school_type":"Gymnasium","fax":"09922 60641","phone":"09922 1340","website":"http://www.gymnasium-zwiesel.de","location":{"lat":"49.0187432","lon":"13.2275444"}},{"name":"St.-Michaels-Gymnasium der Benediktiner Metten","id":"BY-166","address":"Abteistraße 3 94526 Metten","school_type":"Gymnasium","fax":"0991 9108178","phone":"0991 9108120","website":"http://www.kloster-metten.de","location":{"lat":"48.856028","lon":"12.9169023"}},{"name":"Gymnasium Naila","id":"BY-219","address":"Finkenweg 15 95119 Naila","school_type":"Gymnasium","fax":"09282 960819","phone":"09282 96080","website":"http://www.gymnaila.de","location":{"lat":"50.33595715","lon":"11.7010627475166"}},{"name":"Markgräfin-Wilhelmine-Gymnasium Bayreuth","id":"BY-41","address":"Königsallee 17 95448 Bayreuth","school_type":"Gymnasium","fax":"0921 7999113","phone":"0921 79991-0","website":"http://www.mwg-bayreuth.de","location":{"lat":"49.94047215","lon":"11.5922576980674"}},{"name":"Städtisches Eichendorff-Gymnasium Bamberg","id":"BY-36","address":"Kloster-Langheim-Str. 10 96050 Bamberg","school_type":"Gymnasium","fax":"0951 9146320","phone":"0951 9146300","website":"http://www.eg-bamberg.de","location":{"lat":"49.89842645","lon":"10.9106681059559"}},{"name":"Riemenschneider-Gymnasium Würzburg","id":"BY-332","address":"Rennweger Ring 12 97070 Würzburg","school_type":"Gymnasium","fax":"0931 32265-30","phone":"0931 32265-0","website":"http://www.riemenschneider-gymnasium.de","location":{"lat":"49.79681625","lon":"9.94213699113191"}},{"name":"Armin-Knab-Gymnasium Kitzingen","id":"BY-136","address":"Kanzler-Stürtzel-Straße 15 97318 Kitzingen","school_type":"Gymnasium","fax":"09321 131733","phone":"09321 13170","website":"http://www.armin-knab-gymnasium.de","location":{"lat":"49.7306177","lon":"10.1592572837353"}},{"name":"Rhön-Gymnasium Bad Neustadt","id":"BY-27","address":"Franz-Marschall-Straße 7 97616 Bad Neustadt","school_type":"Gymnasium","fax":"09771 7807","phone":"09771 2214","website":"http://www.rhoen-gymnasium.de"},{"name":"Balthasar-Neumann-Gymnasium Marktheidenfeld","id":"BY-361","address":"Oberländerstraße 29 97828 Marktheidenfeld","school_type":"Gymnasium","fax":"09391 8737","phone":"09391 1800","website":"http://www.bng-online.de","location":{"lat":"49.8485942","lon":"9.61044002159146"}},{"name":"Volksschule Landshut-Berg","id":"BY-3500","address":"Weinzierlstr. 38 84036 Landshut","school_type":"Grundschule","fax":"0871 9454174","phone":"0871 9454173","website":null,"location":{"lat":"48.5265483","lon":"12.1586587724064"}},{"name":"Volksschule Neufahrn i.NB","id":"BY-3721","address":"Schulweg 2 84088 Neufahrn","school_type":"Grundschule","fax":"08773 910599","phone":"08773 416","website":"http://www.volksschule-neufahrn.de"},{"name":"Volksschule Vilsbiburg","id":"BY-3733","address":"Kirchstraße 6 84137 Vilsbiburg","school_type":"Grundschule","fax":"08741 3201","phone":"08741 6555","website":"http://www.grundschule-vilsbiburg.de","location":{"lat":"48.45269","lon":"12.35872"}},{"name":"Volksschule Altfraunhofen","id":"BY-3698","address":"Schulstraße 4 84169 Altfraunhofen","school_type":"Grundschule","fax":"08705 2158","phone":"08705 1404","website":null,"location":{"lat":"48.449039","lon":"12.171799"}},{"name":"Volksschule Reut","id":"BY-3878","address":"Sonnleiten 27 84367 Reut","school_type":"Grundschule","fax":"08572 969895","phone":"08572 304","website":null},{"name":"Volksschule Wittibreut","id":"BY-3888","address":"Kerneigenstraße 4 84384 Wittibreut","school_type":"Grundschule","fax":"08574 9193912","phone":"08574 919390","website":null},{"name":"Volksschule Schwindegg","id":"BY-2718","address":"Schulstraße 11 84419 Schwindegg","school_type":"Grundschule","fax":"08082 946142","phone":"08082 354","website":null,"location":{"lat":"48.2705283","lon":"12.2534242371203"}},{"name":"Hans-Stethaimer-Volksschule Burghausen","id":"BY-2328","address":"Stadtplatz 36 84489 Burghausen","school_type":"Grundschule","fax":"08677 62740","phone":"08677 61340","website":null,"location":{"lat":"48.1593701","lon":"12.8331484"}},{"name":"Volksschule Haiming","id":"BY-2338","address":"Hauptstraße 24 84533 Haiming","school_type":"Grundschule","fax":"08678 8099","phone":"08678 353","website":null,"location":{"lat":"48.21218665","lon":"12.8851864975382"}},{"name":"Volksschule Oberbergkirchen","id":"BY-2712","address":"Ziegelberg 4 84564 Oberbergkirchen","school_type":"Grundschule","fax":"08637 985057","phone":"08637 985055","website":null,"location":{"lat":"48.30607885","lon":"12.3813137482105"}},{"name":"Volksschule Ingolstadt an der Stollstraße","id":"BY-2108","address":"Stollstr. 2 85053 Ingolstadt","school_type":"Grundschule","fax":"0841 95180199","phone":"0841 95180-100","website":null,"location":{"lat":"48.7541849","lon":"11.4441799"}},{"name":"Volksschule Oberstimm in Manching","id":"BY-2810","address":"Manchinger Str. 1 85077 Manching Oberstimm","school_type":"Grundschule","fax":"08459 330282","phone":"08459 330280","website":null},{"name":"Volksschule Böhmfeld-Hitzhofen","id":"BY-2475","address":"Kirchweg 10 85122 Hitzhofen","school_type":"Grundschule","fax":"08458 37030","phone":"08458 8466","website":null,"location":{"lat":"48.8478029","lon":"11.3208026"}},{"name":"Volksschule Dachau an der Eduard-Ziegler-Straße","id":"BY-2424","address":"Eduard-Ziegler-Str. 1 85221 Dachau","school_type":"Grundschule","fax":"08131 83578","phone":"08131 735981","website":"http://www.grundschule-sued.dachau.net","location":{"lat":"48.2448031","lon":"11.4374128"}},{"name":"Volksschule Weichs","id":"BY-2443","address":"Fränkinger Str. 9 85258 Weichs","school_type":"Grundschule","fax":"08136 998231","phone":"08136 5986","website":null,"location":{"lat":"48.38224","lon":"11.4121152"}},{"name":"Volksschule Vötting in Freising","id":"BY-2562","address":"Hohenbachernstr. 30 85354 Freising Vötting","school_type":"Grundschule","fax":"08161 50648","phone":"08161 13313","website":null},{"name":"Marina-Thudichum-Volksschule Haag a.d. Amper","id":"BY-2565","address":"Pfarrer-Weingand-Str. 5 85410 Haag","school_type":"Grundschule","fax":"08167 955835","phone":"08167 955833","website":"http://www.haagnet.de/schule","location":{"lat":"48.4596227","lon":"11.8236473"}},{"name":"Volksschule Erding am Lodererplatz","id":"BY-2522","address":"Lodererplatz 14 85435 Erding","school_type":"Grundschule","fax":"08122 959272","phone":"08122 10336","website":null,"location":{"lat":"48.3087632","lon":"11.911175862547"}},{"name":"Silva-Grundschule Heimstetten in Kirchheim","id":"BY-2124","address":"Gruber Straße 11 85551 Kirchheim","school_type":"Grundschule","fax":"089 90468655","phone":"089 90468654","website":"http://www.m.shuttle.de/m/gsk3","location":{"lat":"48.159634","lon":"11.7567186"}},{"name":"Volksschule Neukeferloh","id":"BY-2737","address":"Birkenstr. 6 85630 Grasbrunn Neukeferloh","school_type":"Grundschule","fax":"089 46238116","phone":"089 4623810","website":null,"location":{"lat":"48.0942125","lon":"11.7586195"}},{"name":"Volksschule Moosach-Alxing","id":"BY-2459","address":"Glonner Str. 2 85665 Moosach","school_type":"Grundschule","fax":"08091 568365","phone":"08091 3715","website":null,"location":{"lat":"48.0318757","lon":"11.8744832"}},{"name":"Michael-Ende-Volksschule Unterschleißheim","id":"BY-2796","address":"Raiffeisenstr. 27 85716 Unterschleißheim","school_type":"Grundschule","fax":"089 3101254","phone":"089 3103461","website":"http://m-ende-schule.de"},{"name":"Volksschule Fahrenzhausen","id":"BY-2556","address":"Schulstr. 1 85777 Fahrenzhausen","school_type":"Grundschule","fax":"08133 908132","phone":"08133 6359","website":null},{"name":"Volksschule Augsburg, Vor dem Roten Tor","id":"BY-8521","address":"Rote-Torwall-Str. 14 86161 Augsburg","school_type":"Grundschule","fax":"0821 3249478","phone":"0821 3249480","website":"http://www-gsrotestor.de","location":{"lat":"48.3582432","lon":"10.9036533748388"}},{"name":"Eichendorff-Volksschule Augsburg-Haunstetten","id":"BY-8535","address":"Georg-Käß-Platz 1 86179 Augsburg","school_type":"Grundschule","fax":"0821 3247395","phone":"0821 3247390","website":"http://www.eichendorffschule-augsburg.de","location":{"lat":"48.3090776","lon":"10.9105740777352"}},{"name":"Volksschule Königsbrunn-West","id":"BY-8677","address":"Mindelheimer Str. 26 86343 Königsbrunn","school_type":"Grundschule","fax":"08231 88615","phone":"08231 88614","website":"http://www.koenigsbrunn.de","location":{"lat":"48.2764105","lon":"10.8870226"}},{"name":"Volksschule Straßberg","id":"BY-8630","address":"Frieda-Forster-Straße 9 a 86399 Bobingen Straßberg","school_type":"Grundschule","fax":"08234 959946","phone":"08234 959940","website":null},{"name":"Volksschule Altenmünster","id":"BY-8625","address":"Schulstraße 11 86450 Altenmünster","school_type":"Grundschule","fax":"08295 2032","phone":"08295 1025","website":"http://www.grundschule-altenmuenster.de","location":{"lat":"48.4683114","lon":"10.5892246215162"}},{"name":"Volksschule Emersacker","id":"BY-8633","address":"Schulstr. 7 86494 Emersacker","school_type":"Grundschule","fax":"08293 7838","phone":"08293 7835","website":null,"location":{"lat":"48.4871526","lon":"10.6741031253823"}},{"name":"Volksschule Ursberg","id":"BY-8703","address":"Rudolf-Lang-Str. 1 86513 Ursberg","school_type":"Grundschule","fax":"08281 2169","phone":"08281 3666","website":null,"location":{"lat":"48.2657027","lon":"10.4424892"}},{"name":"Volksschule Griesbeckerzell - Obergriesbach","id":"BY-8602","address":"Schulweg 9 86551 Aichach Griesbeckerzell","school_type":"Grundschule","fax":"08251 52061","phone":"08251 2654","website":"http://vsgriesbeckerzell.de","location":{"lat":"48.44176165","lon":"11.0531855474924"}},{"name":"Mangold-Volksschule Donauwörth","id":"BY-8898","address":"Spindeltal 6 86609 Donauwörth","school_type":"Grundschule","fax":"0906 7064315","phone":"0906 70643-11","website":null,"location":{"lat":"48.720014","lon":"10.779541"}},{"name":"Volksschule Nordendorf","id":"BY-8660","address":"Schäfflerstraße 25 86695 Nordendorf","school_type":"Grundschule","fax":"08273 91552","phone":"08273 2420221","website":"http://www.vs-nordendorf.de","location":{"lat":"48.5913031","lon":"10.8327668517875"}},{"name":"Johann-Wilhelm-Klein-Volksschule Alerheim","id":"BY-8892","address":"Raiffeisenstraße 9 86733 Alerheim","school_type":"Grundschule","fax":"09085 452","phone":"09085 308","website":null,"location":{"lat":"48.8438934","lon":"10.6174455"}},{"name":"Von-Imhof-Volksschule Klosterlechfeld","id":"BY-8644","address":"Schulstraße 21 86836 Klosterlechfeld","school_type":"Grundschule","fax":"08232 904918","phone":"08232 2537","website":"http://www.gs-klosterfeld.de","location":{"lat":"48.1523355","lon":"10.8281236"}},{"name":"Volksschule Erpfting","id":"BY-2649","address":"Schulstraße 6 86899 Landsberg Erpfting","school_type":"Grundschule","fax":"08191 50599","phone":"08191 3847","website":null,"location":{"lat":"48.0233075","lon":"10.8320393"}},{"name":"Volksschule Schongau","id":"BY-2986","address":"Fanschuhstraße 5 86956 Schongau","school_type":"Grundschule","fax":"08861 200118","phone":"08861 4219","website":null,"location":{"lat":"47.8114137","lon":"10.8935728"}},{"name":"Volksschule Kempten","id":"BY-8566","address":"Haubenschloßplatz 1 87435 Kempten","school_type":"Grundschule","fax":"0831 5400722","phone":"0831 540070","website":null,"location":{"lat":"47.7168156","lon":"10.3059424688803"}},{"name":"Volksschule Krugzell","id":"BY-8939","address":"Pfarrwaldweg 3 87452 Altusried Krugzell","school_type":"Grundschule","fax":"08374 93659","phone":"08374 8481","website":null,"location":{"lat":"47.7952602","lon":"10.2729633"}},{"name":"Volksschule Sonthofen-Rieden","id":"BY-8968","address":"Albert-Schweitzer-Straße 14 87527 Sonthofen","school_type":"Grundschule","fax":"08321 669216","phone":"08321 669212","website":"http://www.schulweb.de/8752703","location":{"lat":"47.5193769","lon":"10.2638798947701"}},{"name":"Volksschule Thalhofen a.d.Wertach","id":"BY-8833","address":"Schulstr. 19 87616 Marktoberdorf Thalhofen a.d.Wertach","school_type":"Grundschule","fax":"08342 98698","phone":"08342 2214","website":null},{"name":"Volksschule Ronsberg","id":"BY-8840","address":"Schulweg 4 87671 Ronsberg","school_type":"Grundschule","fax":"08306 975412","phone":"08306 405","website":null,"location":{"lat":"47.89835155","lon":"10.41124365"}},{"name":"Volksschule Mindelheim","id":"BY-8876","address":"Schulstraße 4 87719 Mindelheim","school_type":"Grundschule","fax":"08261 4147","phone":"08261 4109","website":null,"location":{"lat":"48.0491954","lon":"10.4920399"}},{"name":"Volksschule Sontheim","id":"BY-8881","address":"Hauptstraße 41 87776 Sontheim","school_type":"Grundschule","fax":"08336 9526","phone":"08336 1237","website":null,"location":{"lat":"48.0088696","lon":"10.3527851"}},{"name":"Volksschule Wasserburg","id":"BY-8803","address":"Schulstraße 15 88142 Wasserburg","school_type":"Grundschule","fax":"08382 887709","phone":"08382 887844","website":null},{"name":"Volksschule Neu-Ulm-Offenhausen","id":"BY-8756","address":"Martin-Luther-Str. 4 89231 Neu-Ulm Offenhausen","school_type":"Grundschule","fax":"0731 9723342","phone":"0731 73913","website":null},{"name":"Volksschule Wullenstetten","id":"BY-8770","address":"Pestalozzistr. 1 89250 Senden Wullenstetten","school_type":"Grundschule","fax":"07307 22152","phone":"07307 22126","website":"http://www.gs-wullenstetten.de"},{"name":"Volksschule Vöhringen-Nord","id":"BY-8779","address":"Falkenstr. 23 89269 Vöhringen","school_type":"Grundschule","fax":"07306 961321","phone":"07306 96130","website":null,"location":{"lat":"48.2850017","lon":"10.0758139"}},{"name":"Volksschule Günzburg - Südost","id":"BY-8736","address":"Rebaystr. 13 89312 Günzburg","school_type":"Grundschule","fax":"08221 5443","phone":"08221 30546","website":null,"location":{"lat":"48.4491239","lon":"10.2880754"}},{"name":"Volksschule Röfingen","id":"BY-8731","address":"Hühleweg 6 89365 Röfingen","school_type":"Grundschule","fax":"08222 42083","phone":"08222 7736","website":null,"location":{"lat":"48.4299202","lon":"10.4525713"}},{"name":"Volksschule Nürnberg, Friedrich-Hegel-Schule","id":"BY-6594","address":"Neue Hegelstr. 17 90409 Nürnberg","school_type":"Grundschule","fax":"0911 9359033","phone":"0911 356085","website":null,"location":{"lat":"49.4677457","lon":"11.0886329"}},{"name":"Private Wilhelm-Löhe-Volksschule Nürnberg","id":"BY-6686","address":"Deutschherrnstr. 10 90429 Nürnberg","school_type":"Grundschule","fax":"0911 260070","phone":"0911 2708258","website":"http://www.loehe-schule.de","location":{"lat":"49.45498695","lon":"11.0631942568326"}},{"name":"Volksschule Nürnberg-Eibach","id":"BY-6589","address":"Fürreuthweg 95 90451 Nürnberg","school_type":"Grundschule","fax":"0911 6498878","phone":"0911 6493123","website":null,"location":{"lat":"49.40926145","lon":"11.0398681044227"}},{"name":"Volksschule Nürnberg, Zugspitzstraße","id":"BY-6656","address":"Zugspitzstr. 123 90471 Nürnberg","school_type":"Grundschule","fax":"0911 8129600","phone":"0911 811751","website":"http://www.gs-zugspitze.de.vu","location":{"lat":"49.4090149","lon":"11.1177557"}},{"name":"Volksschule Nürnberg, Bartholomäusschule","id":"BY-6580","address":"Bartholomäusstr. 16 90489 Nürnberg","school_type":"Grundschule","fax":"0911 5882929","phone":"0911 536018","website":"http://www.bartholomusschule.de","location":{"lat":"49.4554936","lon":"11.1004261"}},{"name":"Volksschule Röthenbach b.St.Wolfgang","id":"BY-6933","address":"Am Zehnthof 8 90530 Wendelstein Röthenbach b.St.Wolfgang","school_type":"Grundschule","fax":"09129 288530","phone":"09129 8753","website":"http://www.grundschule-roethenbach.de"},{"name":"Volksschule Röthenbach a.d.Pegnitz am Forstersberg","id":"BY-6860","address":"Schulstr. 6 90552 Röthenbach","school_type":"Grundschule","fax":"0911 5755989","phone":"0911 577620","website":null,"location":{"lat":"49.4803571","lon":"11.2339434"}},{"name":"Volksschule Allersberg Sybilla-Maurer-Grundschule","id":"BY-6914","address":"Schulstraße 2 90584 Allersberg","school_type":"Grundschule","fax":"09176 90225","phone":"09176 1610","website":"http://www.grundschule-allersberg.de","location":{"lat":"49.2523705","lon":"11.2303017"}},{"name":"Volksschule Fürth, Frauenstraße","id":"BY-6545","address":"Frauenstr. 15 90763 Fürth","school_type":"Grundschule","fax":"0911 97083828","phone":"0911 97083811","website":"http://www.gs-frauen-fuerth.de","location":{"lat":"49.4639438","lon":"10.996347"}},{"name":"Volksschule Fürth, Zedernstraße","id":"BY-6566","address":"Zedernstr. 2 90768 Fürth","school_type":"Grundschule","fax":"0911 761542","phone":"0911 761542","website":null,"location":{"lat":"49.525219","lon":"10.9645307"}},{"name":"Volksschule Erlangen-Bruck Max-und-Justine-Elsner-Schule","id":"BY-6521","address":"Sandbergstr. 1 - 5 91058 Erlangen","school_type":"Grundschule","fax":"09131 934991","phone":"09131 934916","website":null,"location":{"lat":"49.5727068","lon":"10.986858"}},{"name":"Volksschule Baiersdorf","id":"BY-6772","address":"Bodenschatzstraße 9 91083 Baiersdorf","school_type":"Grundschule","fax":"09133 603948","phone":"09133 3241","website":"http://www.grundschule-baiersdorf.de","location":{"lat":"49.6623791","lon":"11.035191"}},{"name":"Volksschule Roth - Nordring","id":"BY-6677","address":"Veit-Stoß-Str. 49 91154 Roth","school_type":"Grundschule","fax":"09171 898171","phone":"09171 975690","website":"http://www.gsnordring-roth.homepage.t-online.de","location":{"lat":"49.25782705","lon":"11.0848944502405"}},{"name":"Bertlein-Volksschule II Lauf a.d.Pegnitz","id":"BY-6847","address":"Martin-Luther-Str. 2 91207 Lauf","school_type":"Grundschule","fax":"09123 83890","phone":"09123 96948-10","website":null,"location":{"lat":"49.5030764","lon":"11.2817052"}},{"name":"Volksschule Bühl","id":"BY-6867","address":"Schulstr. 21 91245 Simmelsdorf Bühl","school_type":"Grundschule","fax":"09155 927711","phone":"09155 927710","website":null,"location":{"lat":"49.6026824","lon":"11.3374619828841"}},{"name":"Anna-Volksschule Forchheim","id":"BY-5723","address":"Konradstraße 36 91301 Forchheim","school_type":"Grundschule","fax":"09191 64241","phone":"09191 14489","website":null,"location":{"lat":"49.72506645","lon":"11.0710822622834"}},{"name":"Volksschule Hausen","id":"BY-5729","address":"Wunderburg 4 91353 Hausen","school_type":"Grundschule","fax":"09191 33174","phone":"09191 31628","website":null,"location":{"lat":"49.6892709","lon":"11.0332684"}},{"name":"Volksschule Neustadt a.d.Aisch  (Grundschule II)","id":"BY-6892","address":"Comeniusstr. 2 91413 Neustadt a.d.Aisch","school_type":"Grundschule","fax":"09161 874601","phone":"09161 874600","website":"http://www.regio-nah.de/comenius-gs-nea","location":{"lat":"49.574415","lon":"10.6122164"}},{"name":"Volksschule Ansbach-Hennenbach","id":"BY-6503","address":"Fürstenstraße 2 91522 Ansbach","school_type":"Grundschule","fax":"0981 86896","phone":"0981 84142","website":null,"location":{"lat":"49.3138747","lon":"10.5801887"}},{"name":"Christoph-von-Schmid-Volksschule Dinkelsbühl","id":"BY-6711","address":"Alte Promenade 24 - 26 91550 Dinkelsbühl","school_type":"Grundschule","fax":"09851 53787","phone":"09851 554647","website":"http://www.grundschule-dkb.de","location":{"lat":"49.0656246","lon":"10.3192465"}},{"name":"Volksschule Gebsattel-Insingen-Neusitz","id":"BY-6722","address":"Bahnhofweg 5 91607 Gebsattel","school_type":"Grundschule","fax":"09861 931017","phone":"09861 931057","website":"http://www.grundschule-gebsattel.de","location":{"lat":"49.3539024","lon":"10.1992274"}},{"name":"Stephani-Volksschule Gunzenhausen","id":"BY-6961","address":"Hindenburgplatz 2 91710 Gunzenhausen","school_type":"Grundschule","fax":"09831 5006444","phone":"09831 5006-0","website":"http://www.gunnet.de/stephani/stepind.htm","location":{"lat":"49.11800745","lon":"10.76055595"}},{"name":"Volksschule Ornbau","id":"BY-6741","address":"Altstadt 5 91737 Ornbau","school_type":"Grundschule","fax":"09826 659940","phone":"09826 480","website":"http://www.vs-ornbau.de","location":{"lat":"49.1750377","lon":"10.6561375"}},{"name":"Volksschule Pleinfeld","id":"BY-6973","address":"Ringstraße 45 91785 Pleinfeld","school_type":"Grundschule","fax":"09144 9270380","phone":"09144 92703-0","website":null,"location":{"lat":"49.10517495","lon":"10.981940739377"}},{"name":"Pestalozzi-Volksschule Sulzbach-Rosenberg an der Konrad-Mayer-Straße","id":"BY-4614","address":"Konrad-Mayer-Straße 2 92237 Sulzbach-Rosenberg","school_type":"Grundschule","fax":"09661 53511","phone":"09661 4524","website":null,"location":{"lat":"49.5002448","lon":"11.7477754"}},{"name":"Volksschule Neumarkt i.d.OPf. in der Hasenheide","id":"BY-4701","address":"Meisenweg 45 92318 Neumarkt","school_type":"Grundschule","fax":"09181 2601008","phone":"09181 9350","website":null,"location":{"lat":"49.2556446","lon":"11.461188"}},{"name":"Chunradus-Grundschule Sindlbach","id":"BY-4719","address":"Eschenbachstr. 1 92348 Berg Sindlbach","school_type":"Grundschule","fax":"09189 7290","phone":"09189 1284","website":null,"location":{"lat":"49.3647221","lon":"11.457514"}},{"name":"Volksschule Schwandorf-Fronberg","id":"BY-4859","address":"St.-Andreas-Straße 3 92421 Schwandorf","school_type":"Grundschule","fax":"09431 43166","phone":"09431 2297","website":null,"location":{"lat":"49.3424964","lon":"12.124505"}},{"name":"Volksschule Trausnitz","id":"BY-4868","address":"Hauptstraße 48 92555 Trausnitz","school_type":"Grundschule","fax":"09655 8195","phone":"09655 8195","website":"http://www.gs.trausnitz.de","location":{"lat":"49.5245609","lon":"12.2641016"}},{"name":"Volksschule Neustadt a.d.Waldnaab","id":"BY-4744","address":"Bildstraße 5 92660 Neustadt","school_type":"Grundschule","fax":"09602 918061","phone":"09602 8438","website":"http://www.gs-neustadt.de","location":{"lat":"49.7260577","lon":"12.1731683483947"}},{"name":"Volksschule Mantel","id":"BY-4742","address":"Ossangerweg 29 92708 Mantel","school_type":"Grundschule","fax":"09605 1243","phone":"09605 505","website":"http://www.schule-mantel.de","location":{"lat":"49.65645645","lon":"12.0434506172191"}},{"name":"Volksschule Regensburg-Königswiesen","id":"BY-4544","address":"Klenzestr. 31 93051 Regensburg","school_type":"Grundschule","fax":"0941 5073934","phone":"0941 5073931","website":null,"location":{"lat":"49.00410365","lon":"12.0732890020309"}},{"name":"Hans-Herrmann-Volksschule Regensburg","id":"BY-4527","address":"Isarstr. 24 93057 Regensburg","school_type":"Grundschule","fax":"0941 5072049","phone":"0941 5072046","website":"http://www.schulen.regensburg.de/hhgs","location":{"lat":"49.0325149","lon":"12.1168853327258"}},{"name":"Volksschule Hagelstadt","id":"BY-4786","address":"Gailsbacher Str. 1 93095 Hagelstadt","school_type":"Grundschule","fax":"09453 999058","phone":"09453 1706","website":null,"location":{"lat":"48.8948359","lon":"12.2211173"}},{"name":"Volksschule Maxhütte-Haidhof","id":"BY-4838","address":"Regensburger Str. 75 93142 Maxhütte-Haidhof","school_type":"Grundschule","fax":"09471 6019112","phone":"09471 60190","website":null,"location":{"lat":"49.1952329","lon":"12.0951611"}},{"name":"Volksschule Deuerling","id":"BY-4779","address":"Am Kirchberg 14 93180 Deuerling","school_type":"Grundschule","fax":"09498 902318","phone":"09498 902316","website":null,"location":{"lat":"49.03449445","lon":"11.9064462784328"}},{"name":"Volksschule Offenstetten","id":"BY-3674","address":"Schulstr. 9 93326 Abensberg Offenstetten","school_type":"Grundschule","fax":"09443 905288","phone":"09443 6297","website":null},{"name":"Volksschule Painten","id":"BY-3675","address":"Hemauer Straße 7 93351 Painten","school_type":"Grundschule","fax":"09499 563","phone":"09499 224","website":null},{"name":"Volksschule Waldmünchen","id":"BY-4675","address":"Allee 8 93449 Waldmünchen","school_type":"Grundschule","fax":"09972 903575","phone":"09972 252","website":null,"location":{"lat":"49.3798999","lon":"12.7060484145403"}},{"name":"Volksschule Pemfling","id":"BY-4655","address":"Pitzlinger Str. 1 93482 Pemfling","school_type":"Grundschule","fax":"09971 801755","phone":"09971 9182","website":"http://www.schule-pemfling.de","location":{"lat":"49.264076","lon":"12.6091881"}},{"name":"Volksschule Passau-Haidenhof","id":"BY-3527","address":"Bozener Str. 11 94036 Passau","school_type":"Grundschule","fax":"0851 52030","phone":"0851 52180","website":null,"location":{"lat":"48.5579834","lon":"13.4230795728482"}},{"name":"Volksschule Karlsbach","id":"BY-3631","address":"Kirchberg 6 94065 Waldkirchen Karlsbach","school_type":"Grundschule","fax":"08581 620","phone":"08581 620","website":null},{"name":"Volksschule Schaibing","id":"BY-3799","address":"Dorfstr. 30 94107 Untergriesbach Schaibing","school_type":"Grundschule","fax":"08593 6228","phone":"08593 1237","website":null,"location":{"lat":"48.6003435","lon":"13.6416113"}},{"name":"Volksschule Bischofsreut-Haidmühle","id":"BY-3617","address":"Schulstr. 23 94145 Haidmühle Bischofsreut","school_type":"Grundschule","fax":"08556 972757","phone":"08556 331","website":null},{"name":"Volksschule Ruderting","id":"BY-3783","address":"Schulstr. 3 94161 Ruderting","school_type":"Grundschule","fax":"08509 7202","phone":"08509 448","website":"http://www.vsruderting.de","location":{"lat":"48.6535001","lon":"13.4125573"}},{"name":"Volksschule Bischofsmais","id":"BY-3817","address":"Max-Peinkofer-Weg 3 94253 Bischofsmais","school_type":"Grundschule","fax":"09920 902105","phone":"09920 1202","website":"http://www.bnv-regen.de/home/vsbischofsmais-hoch","location":{"lat":"48.9201295","lon":"13.081785"}},{"name":"Volksschule Straubing-Ittling","id":"BY-3557","address":"Niederalteicher Str. 13 94315 Straubing","school_type":"Grundschule","fax":"09421 7899459","phone":"09421 63288","website":"http://www.gs-ittling.de","location":{"lat":"48.8811614","lon":"12.6321061"}},{"name":"Volksschule Neukirchen","id":"BY-3913","address":"Hauptstr. 6 94362 Neukirchen","school_type":"Grundschule","phone":"09961 6282","website":null,"location":{"lat":"48.9753821","lon":"12.7532757"}},{"name":"Volksschule Plattling","id":"BY-3601","address":"Preysingstraße 21 94447 Plattling","school_type":"Grundschule","fax":"09931 71526","phone":"09931 6748","website":null,"location":{"lat":"48.7776105","lon":"12.87099"}},{"name":"Volksschule Vilshofen-Aunkirchen","id":"BY-3802","address":"Beutelsbacher Str. 12 94474 Vilshofen Aunkirchen","school_type":"Grundschule","fax":"08543 1445","phone":"08543 1445","website":"http://www.gs-aunkirchen","location":{"lat":"48.5931605","lon":"13.1271463"}},{"name":"Volksschule Bernried","id":"BY-3580","address":"Kirchweg 17 94505 Bernried Edenstetten","school_type":"Grundschule","fax":"09905 8714","phone":"09905 353","website":"http://www.bernried-niederbayern.de/neu","location":{"lat":"48.8981918","lon":"12.9225141"}},{"name":"Volksschule Haarbach","id":"BY-3758","address":"Schulstr. 7 - 9 94542 Haarbach","school_type":"Grundschule","fax":"08535 1385","phone":"08535 310","website":"http://www.vs-haarbach.de.vu","location":{"lat":"48.5295282","lon":"13.1768594"}},{"name":"Volksschule Moos","id":"BY-3590","address":"Kirchplatz 4 94554 Moos","school_type":"Grundschule","fax":"09938 8238","phone":"09938 221","website":null,"location":{"lat":"48.74498685","lon":"12.9520250466919"}},{"name":"Christian-Wolfrum-Volksschule Hof","id":"BY-5573","address":"Leimitzer Str. 56 95028 Hof","school_type":"Grundschule","fax":"09281 478636","phone":"09281 40036","website":"http://www.cws-hof.de","location":{"lat":"50.3153783","lon":"11.9232181"}},{"name":"Pestalozzi-Volksschule Rehau II","id":"BY-5767","address":"Wallstraße 13 95111 Rehau","school_type":"Grundschule","fax":"09283 899564","phone":"09283 9778","website":"http://www.pestalozzischule-rehau.de","location":{"lat":"50.2490033","lon":"12.0370081"}},{"name":"Volksschule Geroldsgrün","id":"BY-5754","address":"Am Mühlhügel 11 95179 Geroldsgrün","school_type":"Grundschule","fax":"09288 1716","phone":"09288 1706","website":null,"location":{"lat":"50.3393301","lon":"11.5955619"}},{"name":"Kreuzberg-Volksschule Münchberg","id":"BY-5759","address":"Beethovenstraße 10 95213 Münchberg","school_type":"Grundschule","fax":"09251 3013","phone":"09251 3341","website":"http://kreuzberg-volksschule.bnhof.de","location":{"lat":"50.1873443","lon":"11.7865211"}},{"name":"Pestalozzi-Volksschule Kulmbach","id":"BY-5824","address":"Pestalozzistraße 29 95326 Kulmbach","school_type":"Grundschule","fax":"09221 607602","phone":"09221 74382","website":"http://www.pvw-kulmbach.de","location":{"lat":"50.1062298","lon":"11.4502409"}},{"name":"Volksschule Bayreuth-Meyernberg","id":"BY-5538","address":"Bodenseering 55 95445 Bayreuth","school_type":"Grundschule","fax":"0921 735815","phone":"0921 73580","website":null,"location":{"lat":"49.9400519","lon":"11.5395305"}},{"name":"Volksschule Himmelkron-Lanzendorf","id":"BY-5817","address":"Ringstraße 5 95502 Himmelkron","school_type":"Grundschule","fax":"09227 973957","phone":"09227 5136","website":null,"location":{"lat":"50.06551045","lon":"11.5978135700886"}},{"name":"Theobald-Schrems-Volksschule Mitterteich","id":"BY-4892","address":"Kohllohstr. 8 95666 Mitterteich","school_type":"Grundschule","fax":"09633 4680","phone":"09633 4580","website":"http://www.grundschule.mitterteich.de","location":{"lat":"49.9553704","lon":"12.2404751"}},{"name":"Volksschule Plößberg","id":"BY-4898","address":"Jahnstraße 1 95703 Plößberg","school_type":"Grundschule","fax":"09636 1624","phone":"09636 342","website":null,"location":{"lat":"49.7860023","lon":"12.3109292"}},{"name":"Luitpold-Volksschule Bamberg","id":"BY-5508","address":"Memmelsdorfer Str. 7 a 96052 Bamberg","school_type":"Grundschule","fax":"0951 9620609","phone":"0951 9620600","website":null,"location":{"lat":"49.9028057","lon":"10.889993980514"}},{"name":"Volksschule Ebrach","id":"BY-5602","address":"Neudorfer Straße 8 96157 Ebrach","school_type":"Grundschule","fax":"09553 921003","phone":"09553 290","website":null,"location":{"lat":"49.8489464","lon":"10.4980589273936"}},{"name":"Volksschule Lichtenfels am Markt","id":"BY-5855","address":"Marktplatz 24 96215 Lichtenfels","school_type":"Grundschule","fax":"09571 940477","phone":"09571 940475","website":null},{"name":"Volksschule Großheirath","id":"BY-5685","address":"Schulstr. 32 96269 Großheirath","school_type":"Grundschule","fax":"09565 610847","phone":"09565 1596","website":"http://www.volksschule-grossheirath.de","location":{"lat":"50.1722216","lon":"10.9468678"}},{"name":"Volksschule Wallenfels","id":"BY-5806","address":"Schützenstr. 35 b 96346 Wallenfels","school_type":"Grundschule","fax":"09262 972238","phone":"09262 341","website":"http://www.kronachonline.de/~vsw","location":{"lat":"50.2705609","lon":"11.4669069"}},{"name":"Pestalozzi-Volksschule Coburg","id":"BY-5558","address":"Seidmannsdorfer Straße 72 96450 Coburg","school_type":"Grundschule","fax":"09561 279227","phone":"09561 27920","website":null,"location":{"lat":"50.25292605","lon":"10.9756381607031"}},{"name":"Goethe/Kepler-Volksschule Würzburg","id":"BY-7551","address":"Von-Luxburg-Str. 3 97074 Würzburg","school_type":"Grundschule","fax":"0931 7953384","phone":"0931 7953380","website":"http://goethe-kepler-schule.de","location":{"lat":"49.7859096","lon":"9.95176313657596"}},{"name":"Volksschule Veitshöchheim","id":"BY-7972","address":"Günterslebener Str. 41 97209 Veitshöchheim","school_type":"Grundschule","fax":"0931 45232633","phone":"0931 45232630","website":"http://www.grundschule-veitshoechheim.de","location":{"lat":"49.8301761","lon":"9.8893221"}},{"name":"Volksschule Eibelstadt","id":"BY-7930","address":"Schulring 11 97246 Eibelstadt","school_type":"Grundschule","fax":"09303 980675","phone":"09303 382","website":null,"location":{"lat":"49.725665","lon":"10.0021693239991"}},{"name":"Volksschule Theilheim","id":"BY-7966","address":"Reisgrube 17 97288 Theilheim","school_type":"Grundschule","phone":"09303 487","website":"http://vs-theilheim.de","location":{"lat":"49.75371365","lon":"10.0259144938516"}},{"name":"Volksschule Hellmitzheimer Bucht Markt Einersheim","id":"BY-7777","address":"Schulstr. 4 97348 Markt Einersheim","school_type":"Grundschule","fax":"09326 902257","phone":"09326 8736","website":null,"location":{"lat":"49.6850176","lon":"10.2879124"}},{"name":"Friedrich-Rückert-Volksschule Schweinfurt","id":"BY-7529","address":"Gunnar-Wester-Str. 9 97421 Schweinfurt","school_type":"Grundschule","fax":"09721 51940","phone":"09721 51942","website":null,"location":{"lat":"50.0404507","lon":"10.2286157889816"}},{"name":"Balthasar-Neumann-Volksschule Werneck","id":"BY-7917","address":"Schönbornstr. 40 97440 Werneck","school_type":"Grundschule","fax":"09722 9490416","phone":"09722 949040","website":"http://www.grundschule-werneck.de","location":{"lat":"49.9863548","lon":"10.0975255"}},{"name":"Volksschule Am Zabelstein Donnersdorf","id":"BY-7913","address":"Schulstr. 2 97499 Donnersdorf Traustadt","school_type":"Grundschule","fax":"09528 950175","phone":"09528 950166","website":null},{"name":"Volksschule Schwebheim","id":"BY-7907","address":"Schulstraße 20 97525 Schwebheim","school_type":"Grundschule","fax":"09723 912332","phone":"09723 912322","website":null,"location":{"lat":"49.9986187","lon":"10.2513367946543"}},{"name":"Volksschule Wollbach","id":"BY-7720","address":"Schulstr. 20 97618 Wollbach","school_type":"Grundschule","fax":"09773 6870","phone":"09773 6260","website":null},{"name":"Anton-Kliegl-Volksschule Bad Kissingen","id":"BY-7649","address":"Platz der Heimattreue 1 97688 Bad Kissingen","school_type":"Grundschule","fax":"0971 7854929","phone":"0971 7854920","website":null},{"name":"Volksschule Burglauer","id":"BY-7654","address":"Jahnstraße 12 97724 Burglauer","school_type":"Grundschule","fax":"09733 6539","phone":"09733 9688","website":null,"location":{"lat":"50.2744797","lon":"10.1814491"}},{"name":"Volksschule Hammelburg","id":"BY-7662","address":"Friedrich-Müller-Straße 19 97762 Hammelburg","school_type":"Grundschule","fax":"09732 4555","phone":"09732 4524","website":null,"location":{"lat":"50.11232545","lon":"9.89171874051299"}},{"name":"Volksschule Lohr a.Main","id":"BY-7853","address":"Kaplan-Höfling-Str. 16 97816 Lohr","school_type":"Grundschule","fax":"09352 508886","phone":"09352 508884","website":"http://www.grundschule-lohr.de","location":{"lat":"49.99298655","lon":"9.57446779627215"}},{"name":"Volksschule Steinfeld","id":"BY-7869","address":"Waldzeller Str. 11 97854 Steinfeld","school_type":"Grundschule","fax":"09359 90198","phone":"09359 361","website":"http://www.primolo.de/home/gssteinfeld","location":{"lat":"49.952064","lon":"9.6676168"}},{"name":"Volksschule Dorfprozelten/Stadtprozelten","id":"BY-7798","address":"Schulstr. 4 97904 Dorfprozelten","school_type":"Grundschule","fax":"09392 98997","phone":"09392 98996","website":"http://www.vs-dorfprozelten.de","location":{"lat":"49.7753207","lon":"9.3834566"}},{"name":"Volksschule Collenberg","id":"BY-7797","address":"Jahnstraße 4 97903 Collenberg","school_type":"Grundschule","fax":"09376 9740059","phone":"09376 484","website":null,"location":{"lat":"49.77466","lon":"9.3295538"}},{"name":"Volksschule Wiesthal","id":"BY-7876","address":"Schulstr. 12 97859 Wiesthal","school_type":"Grundschule","fax":"06020 2877","phone":"06020 425","website":null},{"name":"Volksschule Urspringen","id":"BY-7872","address":"Schulstr. 8 97857 Urspringen","school_type":"Grundschule","fax":"09396 993865","phone":"09396 371","website":null,"location":{"lat":"49.9047727","lon":"9.671719"}},{"name":"Volksschule Triefenstein","id":"BY-7852","address":"Spessartstr. 20 97855 Triefenstein Lengfurt","school_type":"Grundschule","fax":"09395 997870","phone":"09395 484","website":null,"location":{"lat":"49.8141799","lon":"9.5955073"}},{"name":"Volksschule Partenstein","id":"BY-7863","address":"Schulstraße 10 97846 Partenstein","school_type":"Grundschule","fax":"09355 99967","phone":"09355 1888","website":"http://schule.partenstein.de"},{"name":"Volksschule Karbach","id":"BY-7845","address":"Schulstr. 8 97842 Karbach","school_type":"Grundschule","fax":"09391 8916","phone":"09391 1752","website":null,"location":{"lat":"49.8683169","lon":"9.6405379"}},{"name":"Volksschule Hafenlohr","id":"BY-7844","address":"Herrngasse 6 97840 Hafenlohr","school_type":"Grundschule","fax":"09391 6156","phone":"09391 3901","website":null,"location":{"lat":"49.8696358","lon":"9.6010133"}},{"name":"Volksschule Erlenbach b.Marktheidenfeld","id":"BY-7836","address":"Schulstraße 7 97837 Erlenbach","school_type":"Grundschule","fax":"09391 919811","phone":"09391 2261","website":null,"location":{"lat":"49.8176932","lon":"9.6340639"}},{"name":"Friedrich-Fleischmann-Volksschule Marktheidenfeld","id":"BY-7860","address":"Ludwigstraße 29 97828 Marktheidenfeld","school_type":"Grundschule","fax":"09391 81708","phone":"09391 5864","website":null,"location":{"lat":"49.84560845","lon":"9.61187828450027"}},{"name":"Volksschule Lohr a.Main-Wombach","id":"BY-7859","address":"Bachstr. 32 97816 Lohr Wombach","school_type":"Grundschule","fax":"09352 807293","phone":"09352 1354","website":null,"location":{"lat":"49.97539845","lon":"9.56653593550446"}},{"name":"Volksschule Lohr a.Main-Sackenbach","id":"BY-7857","address":"Zeiläckerweg 1 97816 Lohr Sackenbach","school_type":"Grundschule","fax":"09352 807291","phone":"09352 2736","website":null,"location":{"lat":"50.00786235","lon":"9.59238007628981"}},{"name":"Volksschule Lohr a.Main-Sendelbach","id":"BY-7855","address":"Ostlandstr. 19 97816 Lohr Sendelbach","school_type":"Grundschule","fax":"09352 807244","phone":"09352 2872","website":"http://www.gssendelbach.de","location":{"lat":"49.9921751","lon":"9.58898068081391"}},{"name":"Volksschule Zeitlofs","id":"BY-7684","address":"Raiffeisen Str. 36 97799 Zeitlofs","school_type":"Grundschule","fax":"09746 347","phone":"09746 347","website":null,"location":{"lat":"50.2598325","lon":"9.667493"}},{"name":"Volksschule Wartmannsroth","id":"BY-7657","address":"Gerstenberg 8 97797 Wartmannsroth Dittlofsroda","school_type":"Grundschule","fax":"09357 992012","phone":"09357 682","website":null,"location":{"lat":"50.1502451","lon":"9.7636029"}},{"name":"Volksschule Rieneck","id":"BY-7866","address":"Lamperweg 3 97794 Rieneck","school_type":"Grundschule","fax":"09354 398","phone":"09354 398","website":null,"location":{"lat":"50.0930349","lon":"9.644593"}},{"name":"Volksschule Riedenberg","id":"BY-7679","address":"Kirchstr. 11 97792 Riedenberg","school_type":"Grundschule","fax":"09749 289","phone":"09749 289","website":null},{"name":"Volksschule Oberleichtersbach","id":"BY-7674","address":"Schulstr. 11 97789 Oberleichtersbach","school_type":"Grundschule","fax":"09741 2637","phone":"09741 3103","website":null,"location":{"lat":"50.271692","lon":"9.8050262"}},{"name":"Volksschule Motten","id":"BY-7669","address":"Am Kirchberg 10 97786 Motten Kothen","school_type":"Grundschule","fax":"09748 9282","phone":"09748 9281","website":null},{"name":"Volksschule Gräfendorf","id":"BY-7843","address":"Am Forsthaus 3 97782 Gräfendorf","school_type":"Grundschule","fax":"09357 992201","phone":"09357 992200","website":"http://www.vs-graefendorf.de","location":{"lat":"50.122073","lon":"9.7439435"}},{"name":"Volksschule Gössenheim","id":"BY-7842","address":"Hauptstr. 29 a 97780 Gössenheim","school_type":"Grundschule","fax":"09358 901077","phone":"09358 262","website":null,"location":{"lat":"50.0204749","lon":"9.7805788"}},{"name":"Volksschule Aura i.Sinngrund","id":"BY-7834","address":"Hauptstr. 1 97773 Aura","school_type":"Grundschule","fax":"09356 933690","phone":"09356 5362","website":null,"location":{"lat":"50.1766914","lon":"9.5747767"}},{"name":"Volksschule Bad Brückenau","id":"BY-7648","address":"Am Kleinen Steinbusch 8 97769 Bad Brückenau","school_type":"Grundschule","fax":"09741 3729","phone":"09741 2197","website":null,"location":{"lat":"50.3043748","lon":"9.78715033686031"}},{"name":"Volksschule Karlstadt-Wiesenfeld/Karlburg","id":"BY-7875","address":"Schloßgartenweg 3 97753 Karlstadt Wiesenfeld","school_type":"Grundschule","fax":"09359 909719","phone":"09359 301","website":"http://www.vswiesenfeld.de","location":{"lat":"49.992909","lon":"9.6776116"}},{"name":"Volksschule Karlstadt","id":"BY-7847","address":"Ostlandstraße 25 97753 Karlstadt","school_type":"Grundschule","fax":"09353 996938","phone":"09353 8191","website":null,"location":{"lat":"49.96123455","lon":"9.7767594152019"}},{"name":"Volksschule Gemünden a. Main-Wernfeld","id":"BY-7873","address":"Artfeldstr. 12 97737 Gemünden Wernfeld","school_type":"Grundschule","fax":"09351 8824","phone":"09351 8824","website":null,"location":{"lat":"50.02430585","lon":"9.72717130983137"}},{"name":"Volksschule Gemünden-Langenprozelten","id":"BY-7850","address":"Schulgasse 4 97737 Gemünden Langenprozelten","school_type":"Grundschule","fax":"09351 3106","phone":"09351 3106","website":null,"location":{"lat":"50.0618587","lon":"9.6551847"}},{"name":"Volksschule Gemünden a.Main","id":"BY-7840","address":"Hofweg 4 97737 Gemünden","school_type":"Grundschule","fax":"09351 601649","phone":"09351 3535","website":null,"location":{"lat":"50.06166885","lon":"9.68801779419623"}},{"name":"Volksschule Thundorf i.UFr.","id":"BY-7683","address":"Leiten 10 97711 Thundorf Rothhausen","school_type":"Grundschule","fax":"09724 1753","phone":"09724 1752","website":null},{"name":"Volksschule Maßbach-Poppenlauer","id":"BY-7667","address":"Wermerichshäuser Weg 14 97711 Maßbach Poppenlauer","school_type":"Grundschule","fax":"09733 4268","phone":"09733 9401","website":null,"location":{"lat":"50.2161785","lon":"10.2394715"}},{"name":"Volksschule Burkardroth","id":"BY-7677","address":"Steinbergstr. 44 97705 Burkardroth Premich","school_type":"Grundschule","fax":"09701 8633","phone":"09701 383","website":"http://vspremich.de","location":{"lat":"50.3020646","lon":"10.0199789159846"}},{"name":"Volksschule Münnerstadt-Großwenkheim","id":"BY-7672","address":"Ringweg 31 97702 Münnerstadt-Seubrigshausen Großwenkheim","school_type":"Grundschule","fax":"09766 1653","phone":"09766 477","website":null},{"name":"Freiherr-von-Lutz-Volksschule Münnerstadt","id":"BY-7670","address":"Schützenstraße 28 97702 Münnerstadt","school_type":"Grundschule","fax":"09733 810220","phone":"09733 810211","website":null,"location":{"lat":"50.2468556","lon":"10.2060518"}},{"name":"Henneberg-Volksschule Bad Kissingen-Garitz","id":"BY-7651","address":"Baptist-Hoffmann-Str. 14 97688 Bad Kissingen Garitz","school_type":"Grundschule","fax":"0971 60573","phone":"0971 5725","website":null,"location":{"lat":"50.1911563","lon":"10.0564965"}},{"name":"Volksschule Sandberg","id":"BY-7715","address":"Kreuzbergstraße 97657 Sandberg","school_type":"Grundschule","fax":"09701 9212","phone":"09701 9210","website":"http://www.volksschule-sandberg.de","location":{"lat":"50.3456309","lon":"10.0095285"}},{"name":"Valentin-Rathgeber-Volksschule Oberelsbach","id":"BY-7709","address":"Neumühlenweg 2 97656 Oberelsbach Weisbach","school_type":"Grundschule","fax":"09774 9234","phone":"09774 9233","website":null},{"name":"Volksschule Besengau-Bastheim","id":"BY-7695","address":"Schulstr. 8 97654 Bastheim","school_type":"Grundschule","fax":"09773 1786","phone":"09773 434","website":null,"location":{"lat":"50.3987652","lon":"10.2058964"}},{"name":"Volksschule Nordheim v.d.Rhön","id":"BY-7708","address":"Schulstr. 5 97647 Nordheim","school_type":"Grundschule","fax":"09779 1897","phone":"09779 330","website":null},{"name":"Volksschule Ostheim v.d.Rhön","id":"BY-7711","address":"Ritter-von-Halt-Str. 1 97645 Ostheim","school_type":"Grundschule","fax":"09777 9216","phone":"09777 9215","website":null,"location":{"lat":"50.4620741","lon":"10.2336606"}},{"name":"Volksschule Oberstreu","id":"BY-7710","address":"Gartenstr. 1 97640 Oberstreu Mittelstreu","school_type":"Grundschule","fax":"09773 5192","phone":"09773 1279","website":null,"location":{"lat":"50.3901548","lon":"10.2694258"}},{"name":"Volksschule Mellrichstadt","id":"BY-7706","address":"Friedenstr. 22 97638 Mellrichstadt","school_type":"Grundschule","fax":"09776 7413","phone":"09776 277","website":null,"location":{"lat":"50.4273006","lon":"10.3052348"}},{"name":"Volksschule Sulzfeld","id":"BY-7764","address":"Schulstr. 2 97633 Sulzfeld","school_type":"Grundschule","fax":"09761 397309","phone":"09761 2502","website":"http://www.vs-sulzfeld.de","location":{"lat":"50.2629589","lon":"10.4059905"}},{"name":"Volksschule Saaletal in Saal a.d. Saale","id":"BY-7713","address":"Marktplatz 1 97633 Saal","school_type":"Grundschule","fax":"09762 6197","phone":"09762 6117","website":null},{"name":"Volksschule Milzgrund in Aubstadt","id":"BY-7691","address":"Schulstr. 8 97633 Aubstadt","school_type":"Grundschule","fax":"09761 5585","phone":"09761 2602","website":"http://vsmilzgrund.de","location":{"lat":"50.3300592","lon":"10.4379562"}},{"name":"Volksschule Hollstadt","id":"BY-7703","address":"Schulstr. 5 97618 Hollstadt","school_type":"Grundschule","fax":"09773 763","phone":"09773 6621","website":null,"location":{"lat":"50.3550327","lon":"10.2870767"}},{"name":"Karl-Straub-Volksschule Salz","id":"BY-7714","address":"Hirtshorn 2 97616 Salz","school_type":"Grundschule","fax":"09771 994181","phone":"09771 3567","website":"http://www.vs-salz.de","location":{"lat":"50.30605175","lon":"10.2155629172595"}},{"name":"Volksschule Bad Neustadt a.d.Saale-Brendlorenzen","id":"BY-7697","address":"Valentin-Rathgeber-Str. 1-3 97616 Bad Neustadt Brendlorenzen","school_type":"Grundschule","fax":"09771 994139","phone":"09771 3263","website":null},{"name":"Volksschule Bad Neustadt a.d.Saale-Herschfeld","id":"BY-7694","address":"Kirchstraße 16 97616 Bad Neustadt Herschfeld","school_type":"Grundschule","fax":"09771 994119","phone":"09771 2374","website":null},{"name":"Karl-Ludwig-von-Guttenberg-Volksschule Bad Neustadt a.d.Saale","id":"BY-7692","address":"Rhönblick 15 97616 Bad Neustadt","school_type":"Grundschule","fax":"09771 994130","phone":"09771 2534","website":"http://www.gsnes.de"},{"name":"Volksschule Wasserlosen","id":"BY-7926","address":"Friedhofstraße 14 97535 Wasserlosen","school_type":"Grundschule","fax":"09726 8424","phone":"09726 3869","website":null,"location":{"lat":"50.09667345","lon":"10.0301458714256"}},{"name":"Volksschule Sennfeld","id":"BY-7908","address":"Gartenstraße 2 97526 Sennfeld","school_type":"Grundschule","fax":"09721 60150","phone":"09721 60150","website":null,"location":{"lat":"50.0385619","lon":"10.2564159"}},{"name":"Volksschule Schwanfeld","id":"BY-7905","address":"Schulstr. 4 - 6 97523 Schwanfeld","school_type":"Grundschule","fax":"09384 8649","phone":"09384 253","website":"http://www.vs-schwanfeld.de","location":{"lat":"49.9186946","lon":"10.1379918"}},{"name":"Volksschule Röthlein","id":"BY-7903","address":"Friedhofstr. 1 97520 Röthlein","school_type":"Grundschule","fax":"09723 5966","phone":"09723 1519","website":"http://www.roethlein.de","location":{"lat":"49.98811175","lon":"10.2160997909751"}},{"name":"Volksschule Oberaurach","id":"BY-7750","address":"Am Sportzentrum 4 97514 Oberaurach Trossenfurt","school_type":"Grundschule","fax":"09522 950837","phone":"09522 328","website":null,"location":{"lat":"49.9240966","lon":"10.66167"}},{"name":"Volksschule Kolitzheim","id":"BY-7915","address":"Schulweg 15 97509 Kolitzheim Herlheim","school_type":"Grundschule","fax":"09382 3733","phone":"09382 8388","website":"http://www.grundschule-kolitzheim.de","location":{"lat":"49.9250015","lon":"10.2916511"}},{"name":"Volksschule Grettstadt","id":"BY-7894","address":"Kirchgasse 11 97508 Grettstadt","school_type":"Grundschule","fax":"09729 7297","phone":"09729 7204","website":"http://www.schule.grettstadt.de","location":{"lat":"49.9852669","lon":"10.3128202"}},{"name":"Theresia-Gerhardinger-Volksschule Grafenrheinfeld","id":"BY-7893","address":"Hermasweg 1 b 97506 Grafenrheinfeld","school_type":"Grundschule","fax":"09723 5965","phone":"09723 1422","website":null,"location":{"lat":"50.007065","lon":"10.2030215"}},{"name":"Volksschule Euerbach","id":"BY-7888","address":"Schulstraße 1 97502 Euerbach","school_type":"Grundschule","fax":"09726 915544","phone":"09726 435","website":null,"location":{"lat":"50.06058135","lon":"10.1356400513426"}},{"name":"Volksschule Ebelsbach","id":"BY-7729","address":"Georg-Schäfer-Str. 58 97500 Ebelsbach","school_type":"Grundschule","fax":"09522 1228","phone":"09522 70492","website":null,"location":{"lat":"49.98917595","lon":"10.683869"}},{"name":"Volksschule Burgpreppach","id":"BY-7728","address":"Fitzendorfer Str. 5 97496 Burgpreppach","school_type":"Grundschule","fax":"09534 213","phone":"09534 272","website":null,"location":{"lat":"50.1397546","lon":"10.6411361"}},{"name":"Julius-Echter-Volksschule in Bergrheinfeld","id":"BY-7883","address":"Schloßgasse 1 97493 Bergrheinfeld","school_type":"Grundschule","fax":"09721 97312","phone":"09721 90454","website":null,"location":{"lat":"50.0050692","lon":"10.1797236"}},{"name":"Regiomontanus-Volksschule Königsberg i.Bay.","id":"BY-7740","address":"Alleestr. 1 a 97486 Königsberg","school_type":"Grundschule","fax":"09525 8358","phone":"09525 8481","website":null},{"name":"Johann-Baptist-Graser-Volksschule Eltmann","id":"BY-7732","address":"Oskar-Serrand-Straße 25 97483 Eltmann","school_type":"Grundschule","fax":"09522 950311","phone":"09522 950310","website":null,"location":{"lat":"49.9691773","lon":"10.6631586771153"}},{"name":"Volksschule Zeil a.Main/Sand a.Main","id":"BY-7754","address":"Schulring 1 97475 Zeil","school_type":"Grundschule","fax":"09524 94997","phone":"09524 94992","website":null,"location":{"lat":"50.0112252","lon":"10.5921541768742"}},{"name":"Volksschule Gochsheim","id":"BY-7891","address":"Adam-Riese-Str. 12 97469 Gochsheim","school_type":"Grundschule","fax":"09721 6496210","phone":"09721 6752930","website":"http://www.grundschule-gochsheim.de","location":{"lat":"50.0242596","lon":"10.2885382"}},{"name":"Volksschule Hofheim i.UFr.","id":"BY-7735","address":"Johannisstr. 32 97461 Hofheim","school_type":"Grundschule","fax":"09523 6149","phone":"09523 6038","website":null,"location":{"lat":"50.1428921","lon":"10.5198262"}},{"name":"Volksschule Schonungen","id":"BY-7904","address":"Schulweg 7 - 13 97453 Schonungen","school_type":"Grundschule","fax":"09721 75173","phone":"09721 75172","website":null,"location":{"lat":"50.0517207","lon":"10.3020903"}},{"name":"Volksschule Arnstein-Schwebenried","id":"BY-7868","address":"Schulstr. 7 97450 Arnstein Schwebenried","school_type":"Grundschule","fax":"09728 241","phone":"09728 241","website":null,"location":{"lat":"50.0207465","lon":"10.0038677"}},{"name":"Volksschule Arnstein","id":"BY-7832","address":"Schwebenrieder Str. 10 97450 Arnstein","school_type":"Grundschule","fax":"09363 99059","phone":"09363 1789","website":null,"location":{"lat":"49.9806099","lon":"9.9725595"}},{"name":"Volksschule Gerolzhofen","id":"BY-7890","address":"Lülsfelder Weg 6 97447 Gerolzhofen","school_type":"Grundschule","fax":"09382 310071","phone":"09382 310070","website":"http://www.grundschule-gerolzhofen.de","location":{"lat":"49.8981718","lon":"10.3493051476663"}},{"name":"Volksschule Haßfurt","id":"BY-7733","address":"Dürerweg 22 97437 Haßfurt","school_type":"Grundschule","fax":"09521 944497","phone":"09521 944455","website":null,"location":{"lat":"50.0358324","lon":"10.5247738"}},{"name":"Gartenstadt-Volksschule Schweinfurt","id":"BY-7531","address":"Kleinflürleinsweg 38 97424 Schweinfurt","school_type":"Grundschule","fax":"09721 51950","phone":"09721 51952","website":null,"location":{"lat":"50.0595998","lon":"10.2166122658461"}},{"name":"Dr.-Pfeiffer-Volksschule Schweinfurt","id":"BY-7528","address":"Fuchsgasse 1 97424 Schweinfurt","school_type":"Grundschule","fax":"09721 7968553","phone":"09721 7968552","website":null,"location":{"lat":"50.0275253","lon":"10.205444"}},{"name":"Albert-Schweitzer-Volksschule Schweinfurt","id":"BY-7523","address":"Albert-Schweitzer-Str. 3 97424 Schweinfurt","school_type":"Grundschule","fax":"09721 51947","phone":"09721 51949","website":"http://www.albertschweitzerschule-schweinfurt.de","location":{"lat":"50.03951785","lon":"10.2019938699814"}},{"name":"Schiller-Volksschule Schweinfurt","id":"BY-7535","address":"Deutschhöfer Str. 22 97422 Schweinfurt","school_type":"Grundschule","fax":"09721 51879","phone":"09721 51882","website":null,"location":{"lat":"50.053322","lon":"10.23165125"}},{"name":"Kerschensteiner-Volksschule Schweinfurt","id":"BY-7533","address":"Kerschensteinerstr. 2 97422 Schweinfurt","school_type":"Grundschule","fax":"09721 51960","phone":"09721 51962","website":null,"location":{"lat":"50.05988315","lon":"10.2441626918127"}},{"name":"Priv. Montessori-Volksschule","id":"BY-7668","address":"Gorch-Fock-Str. 1 a 97421 Schweinfurt","school_type":"Grundschule","fax":"09721 84073","phone":"09721 85000","website":"http://www.montessori-schweinfurt.de","location":{"lat":"50.0520713","lon":"10.2181168"}},{"name":"Körner-Volksschule Schweinfurt","id":"BY-7532","address":"Körnerstr. 1 97421 Schweinfurt","school_type":"Grundschule","fax":"09721 51368","phone":"09721 51368","website":null,"location":{"lat":"50.0467595","lon":"10.2201515"}},{"name":"Auen-Volksschule Schweinfurt","id":"BY-7526","address":"Friedhofstr. 35 97421 Schweinfurt","school_type":"Grundschule","fax":"09721 51970","phone":"09721 51973","website":null,"location":{"lat":"50.0506763","lon":"10.2231950916464"}},{"name":"Volksschule Schwarzacher Becken Schwarzach a.Main","id":"BY-7780","address":"Schulstr. 2 97359 Schwarzach Münsterschwarzach","school_type":"Grundschule","fax":"09324 3518","phone":"09324 762","website":null},{"name":"Volksschule Kleinlangheim","id":"BY-7772","address":"Schulstr. 18 97355 Kleinlangheim","school_type":"Grundschule","fax":"09325 233","phone":"09325 210","website":null,"location":{"lat":"49.772612","lon":"10.2811444"}},{"name":"Volksschule Mainbernheim","id":"BY-7773","address":"Holzgraben 13 97350 Mainbernheim","school_type":"Grundschule","fax":"09323 6285","phone":"09323 1222","website":"http://www.vs-mainbernheim.de","location":{"lat":"49.7114884","lon":"10.2188338"}},{"name":"Volksschule Willanzheim","id":"BY-7786","address":"Schulstr. 8 97348 Willanzheim","school_type":"Grundschule","fax":"09323 870204","phone":"09323 3058","website":null,"location":{"lat":"49.6813744","lon":"10.2281356504843"}},{"name":"Volksschule Martinsheim","id":"BY-7779","address":"Bäckergasse 11 97340 Martinsheim","school_type":"Grundschule","fax":"09332 590328","phone":"09332 9206","website":null,"location":{"lat":"49.62525415","lon":"10.1518532814166"}},{"name":"Volksschule Marktbreit","id":"BY-7775","address":"Fleischmannstr. 3 a 97340 Marktbreit","school_type":"Grundschule","fax":"09332 4658","phone":"09332 9535","website":"http://gs_marktbreityahoo.de","location":{"lat":"49.6660223","lon":"10.1453073"}},{"name":"Volksschule Sommerach","id":"BY-7783","address":"Raiffeisenstr. 9 97334 Sommerach","school_type":"Grundschule","fax":"09381 717679","phone":"09381 2434","website":"http://www.home.t-online.de/home/volksschule-sommerach","location":{"lat":"49.8309367","lon":"10.2043789"}},{"name":"Albert-Schweitzer-Volksschule Albertshofen","id":"BY-7760","address":"Waldstr. 9 97320 Albertshofen","school_type":"Grundschule","fax":"09321 384831","phone":"09321 31558","website":null,"location":{"lat":"49.766348","lon":"10.1666419"}},{"name":"Volksschule Kitzingen-Siedlung","id":"BY-7769","address":"Danziger Straße 1 97318 Kitzingen","school_type":"Grundschule","fax":"09321 9305060","phone":"09321 9305050","website":"http://gss.stadt-kitzingen.de"},{"name":"St.-Hedwig-Volksschule Kitzingen","id":"BY-7767","address":"Schulhof 3 97318 Kitzingen","school_type":"Grundschule","fax":"09321 929904","phone":"09321 25444","website":"http://www.kitzingen.de/st-hedwig","location":{"lat":"49.74086545","lon":"10.1610216894696"}},{"name":"Volksschule Zell a.Main","id":"BY-7975","address":"Schulstr. 6 97299 Zell","school_type":"Grundschule","fax":"0931 462791","phone":"0931 462791","website":null,"location":{"lat":"49.8089299","lon":"9.8730439"}},{"name":"Volksschule Thüngersheim","id":"BY-7967","address":"Schulstraße 1 97291 Thüngersheim","school_type":"Grundschule","fax":"09364 811925","phone":"09364 9643","website":null,"location":{"lat":"49.8815762","lon":"9.8409744"}},{"name":"Volksschule Thüngen","id":"BY-7871","address":"Frühlingsstr. 3 97289 Thüngen","school_type":"Grundschule","fax":"09360 99998","phone":"09360 322","website":"http://volksschule-thuengen.de","location":{"lat":"49.9382731","lon":"9.86271"}},{"name":"Volksschule Röttingen","id":"BY-7960","address":"Schulstr. 5 97285 Röttingen","school_type":"Grundschule","fax":"09338 9801090","phone":"09338 302","website":null,"location":{"lat":"49.4928686","lon":"9.9387859"}},{"name":"Volksschule Retzstadt","id":"BY-7516","address":"Schulstr. 1 97282 Retzstadt","school_type":"Grundschule","fax":"09364 812040","phone":"09364 9546","website":"http://www.grundschule-retzstadt.de","location":{"lat":"49.9104971","lon":"9.8725665"}},{"name":"Volksschule Leinach","id":"BY-7970","address":"F.-J.-Strauß-Straße 97274 Leinach","school_type":"Grundschule","fax":"09364 812846","phone":"09364 5852","website":"http://www.vs-leinach.de"},{"name":"Volksschule Kürnach","id":"BY-7948","address":"An der Heiligen Wiese 97273 Kürnach","school_type":"Grundschule","fax":"09367 2474","phone":"09367 410","website":null},{"name":"Volksschule Kist","id":"BY-7946","address":"Oskar-Popp-Str. 4 97270 Kist","school_type":"Grundschule","fax":"09306 981829","phone":"09306 1622","website":null,"location":{"lat":"49.7440514","lon":"9.8420727"}},{"name":"Volksschule Kirchheim","id":"BY-7945","address":"Rathausstr. 4 97268 Kirchheim","school_type":"Grundschule","fax":"09366 990334","phone":"09366 1566","website":null,"location":{"lat":"49.6558665","lon":"9.8593496"}},{"name":"Volksschule Himmelstadt","id":"BY-7517","address":"Brückenstr. 12a 97267 Himmelstadt","school_type":"Grundschule","fax":"09364 896331","phone":"09364 896330","website":null,"location":{"lat":"49.9225061","lon":"9.8059898"}},{"name":"Astrid-Lindgren-Volksschule Helmstadt","id":"BY-7942","address":"Don-Bosco-Str. 1 97264 Helmstadt","school_type":"Grundschule","fax":"09369 652","phone":"09369 651","website":null,"location":{"lat":"49.7635382","lon":"9.7086262"}},{"name":"Ignatius-Gropp-Volksschule Güntersleben","id":"BY-7940","address":"Schulstraße 2 97261 Güntersleben","school_type":"Grundschule","fax":"09365 880251","phone":"09365 4224","website":null,"location":{"lat":"49.8713466","lon":"9.900934"}},{"name":"Volksschule Sonderhofen","id":"BY-7965","address":"Am Königshof 18 97253 Gaukönigshofen Sonderhofen","school_type":"Grundschule","fax":"09337 1041","phone":"09337 1040","website":null},{"name":"Volksschule Frickenhausen a.Main","id":"BY-7934","address":"Geheusteige 17 97252 Frickenhausen","school_type":"Grundschule","fax":"09331 803831","phone":"09331 3148","website":null,"location":{"lat":"49.67256795","lon":"10.0914777392935"}},{"name":"Volksschule Eisingen-Waldbrunn","id":"BY-7931","address":"Schulstr. 2 97249 Eisingen","school_type":"Grundschule","fax":"09306 99571","phone":"09306 99570","website":null,"location":{"lat":"49.7576414","lon":"9.8306179"}},{"name":"Volksschule Bütthard","id":"BY-7929","address":"Simmringer Str. 20 97244 Bütthard","school_type":"Grundschule","fax":"09336 997605","phone":"09336 336","website":null,"location":{"lat":"49.5984514","lon":"9.8800081"}},{"name":"Volksschule Bergtheim Verbandsschule","id":"BY-7928","address":"Frühlingstr. 10 97241 Bergtheim","school_type":"Grundschule","fax":"09367 907676","phone":"09367 90760","website":null,"location":{"lat":"49.89590595","lon":"10.0695524436215"}},{"name":"Volksschule Aub","id":"BY-7927","address":"In der Peunt 1 97239 Aub","school_type":"Grundschule","fax":"09335 430","phone":"09335 430","website":null},{"name":"Volksschule Randersacker","id":"BY-7957","address":"Schulstraße 15 97236 Randersacker","school_type":"Grundschule","fax":"0931 7059752","phone":"0931 706857","website":null,"location":{"lat":"49.7611438","lon":"9.9858943"}},{"name":"Volksschule Reichenberg","id":"BY-7958","address":"Malzstr. 16 97234 Reichenberg","school_type":"Grundschule","fax":"0931 6677995","phone":"0931 69381","website":null,"location":{"lat":"49.7298306","lon":"9.9137589"}},{"name":"Volksschule Giebelstadt","id":"BY-7938","address":"Schulstraße 1 97232 Giebelstadt","school_type":"Grundschule","fax":"09334 90845","phone":"09334 90844","website":null,"location":{"lat":"49.65506055","lon":"9.94548862808977"}},{"name":"Volksschule Estenfeld","id":"BY-7933","address":"Riemenschneiderstraße 26 97230 Estenfeld","school_type":"Grundschule","fax":"09305 9005040","phone":"09305 88840","website":null,"location":{"lat":"49.8268697","lon":"10.0063832"}},{"name":"Volksschule Rottendorf","id":"BY-7963","address":"Schulstr. 2 97228 Rottendorf","school_type":"Grundschule","fax":"09302 990454","phone":"09302 99995","website":null},{"name":"Volksschule Zellingen","id":"BY-7877","address":"Schulplatz 10 97225 Zellingen","school_type":"Grundschule","fax":"09364 811718","phone":"09364 2522","website":null,"location":{"lat":"49.8990427","lon":"9.8203747"}},{"name":"Matthias-Ehrenfried-Volksschule Rimpar","id":"BY-7959","address":"Neue Siedlung 1 97222 Rimpar","school_type":"Grundschule","fax":"09365 3000120","phone":"09365 9708","website":"http://www.rimpar.de","location":{"lat":"49.851562","lon":"9.9615537710952"}},{"name":"Volksschule Uffenheim","id":"BY-6907","address":"Schulstr. 2 - 4 97215 Uffenheim","school_type":"Grundschule","fax":"09842 7805","phone":"09842 7005","website":"http://www.vs-uffenheim.de","location":{"lat":"49.542906","lon":"10.2227512"}},{"name":"Volksschule Ochsenfurt","id":"BY-7955","address":"Jahnstraße 1 97199 Ochsenfurt","school_type":"Grundschule","phone":"09331 3500","website":null,"location":{"lat":"49.6633293","lon":"10.0681703"}},{"name":"Leonhard-Frank-Schule Würzburg-Heuchelhof/Rottenbauer","id":"BY-7856","address":"Berner Str. 35 97084 Würzburg","school_type":"Grundschule","fax":"0931 2600661","phone":"0931 6677680","website":null,"location":{"lat":"49.73749835","lon":"9.95777069966648"}},{"name":"Volksschule Würzburg-Heuchelhof","id":"BY-7572","address":"Römer Str. 1 97084 Würzburg","school_type":"Grundschule","fax":"0931 6677632","phone":"0931 60224","website":"http://www.ganztagsschule-heuchelhof.de","location":{"lat":"49.7465355","lon":"9.9586615"}},{"name":"Walther-Volksschule Würzburg","id":"BY-7567","address":"Winterhäuser Str. 1 97084 Würzburg","school_type":"Grundschule","fax":"0931 2058150","phone":"0931 20581-40","website":"http://www.waltherschule.de","location":{"lat":"49.763104","lon":"9.9541667"}},{"name":"Steinbachtal-Burkarder-Volksschule Würzburg","id":"BY-7566","address":"Waldkugelweg 3 97082 Würzburg","school_type":"Grundschule","fax":"0931 2600676","phone":"0931 74716","website":null,"location":{"lat":"49.7741204","lon":"9.9269547"}},{"name":"Adalbert-Stifter-Volksschule Würzburg-Zellerau","id":"BY-7546","address":"Friedrichstr. 9 97082 Würzburg","school_type":"Grundschule","fax":"0931 2058220","phone":"0931 2058214","website":null,"location":{"lat":"49.7963713","lon":"9.9147597"}},{"name":"Volksschule Würzburg-Dürrbachgrund","id":"BY-7969","address":"Unterdürrbacher Str. 280 97080 Würzburg","school_type":"Grundschule","fax":"0931 2059775","phone":"0931 94150","website":null,"location":{"lat":"49.8090089","lon":"9.9128712"}},{"name":"Josef-Volksschule Würzburg","id":"BY-7559","address":"Steinheilstr. 30 97080 Würzburg","school_type":"Grundschule","fax":"0931 2877747","phone":"0931 24880","website":null,"location":{"lat":"49.8031532","lon":"9.94613715"}},{"name":"Volksschule Würzburg-Versbach","id":"BY-7973","address":"Heide 14 97078 Würzburg","school_type":"Grundschule","fax":"0931 2600220","phone":"0931 24396","website":"http://www.wuerzburg.de/grundschule-versbach","location":{"lat":"49.8221455","lon":"9.9614755"}},{"name":"Gustav-Walle-Volksschule Würzburg","id":"BY-7554","address":"Schwabenstr. 12 97078 Würzburg","school_type":"Grundschule","fax":"0931 2991230","phone":"0931 299-1220","website":null,"location":{"lat":"49.8115721","lon":"9.96492"}},{"name":"Volksschule Würzburg-Lengfeld","id":"BY-7950","address":"Carl-Orff-Str. 2 97076 Würzburg","school_type":"Grundschule","fax":"0931 2600683","phone":"0931 271444","website":"http://www.grundschule-lengfeld.de","location":{"lat":"49.80729555","lon":"9.98915810296855"}},{"name":"Max-Dauthendey-Volksschule Würzburg","id":"BY-7557","address":"Danziger Str. 12 97072 Würzburg","school_type":"Grundschule","fax":"0931 2600666","phone":"0931 73705","website":null,"location":{"lat":"49.7775689","lon":"9.9366695"}},{"name":"Volksschule Würzburg-Stadtmitte","id":"BY-7548","address":"Hofstr. 16 97070 Würzburg","school_type":"Grundschule","fax":"0931 572821","phone":"0931 572821","website":null,"location":{"lat":"49.793521","lon":"9.9336087"}},{"name":"Emil-Fischer-Volksschule Dörfles-Esbach","id":"BY-5681","address":"Martin-Luther-Straße 2 96487 Dörfles-Esbach","school_type":"Grundschule","fax":"09561 550420","phone":"09561 55040","website":null,"location":{"lat":"50.2842577","lon":"10.9968248391761"}},{"name":"Johann-Gemmer-Volksschule Ahorn","id":"BY-5680","address":"Schulstraße 21 96482 Ahorn","school_type":"Grundschule","fax":"09561 247774","phone":"09561 247773","website":null,"location":{"lat":"50.23690255","lon":"10.9604992782736"}},{"name":"Volksschule Weitramsdorf","id":"BY-5705","address":"Schulstraße 3 96479 Weitramsdorf","school_type":"Grundschule","fax":"09561 38762","phone":"09561 39021","website":"http://www.vs-weitramsdorf.de","location":{"lat":"50.258275","lon":"10.8831896"}},{"name":"Volksschule Bad Rodach I","id":"BY-5692","address":"Schloßplatz 5 96476 Bad Rodach","school_type":"Grundschule","fax":"09564 922618","phone":"09564 92260","website":null},{"name":"Volksschule Rödental-Mönchröden","id":"BY-5697","address":"Schulstr. 36 96472 Rödental Mönchröden","school_type":"Grundschule","fax":"09563 50896","phone":"09563 8225","website":"http://www.grundschule-moenchroeden.de","location":{"lat":"50.30120965","lon":"11.0623384552731"}},{"name":"Volksschule Rödental-Mitte","id":"BY-5696","address":"Mecklenburger Str. 12 96472 Rödental","school_type":"Grundschule","fax":"09563 741750","phone":"09563 74170","website":null,"location":{"lat":"50.29727605","lon":"11.0425190652153"}},{"name":"Volksschule Rödental-Einberg","id":"BY-5694","address":"Glockenberg 22 96472 Rödental Einberg","school_type":"Grundschule","fax":"09563 50897","phone":"09563 1473","website":null,"location":{"lat":"50.2866922","lon":"11.0425911906027"}},{"name":"Luther-Volksschule Coburg","id":"BY-5559","address":"Albertsplatz 1 96450 Coburg","school_type":"Grundschule","fax":"09561 73054","phone":"09561 73054","website":null,"location":{"lat":"50.2564901","lon":"10.9629534185584"}},{"name":"Volksschule Coburg-Neuses","id":"BY-5557","address":"Friedrich-Rückert-Str. 47 96450 Coburg","school_type":"Grundschule","fax":"09561 69162","phone":"09561 69162","website":null,"location":{"lat":"50.2745106","lon":"10.9502235"}},{"name":"Melchior-Franck-Volksschule Coburg","id":"BY-5556","address":"Baumschulenweg 47 96450 Coburg","school_type":"Grundschule","fax":"09561 831065","phone":"09561 36672","website":null,"location":{"lat":"50.2508287","lon":"10.9487983"}},{"name":"Volksschule Coburg-Ketschendorf","id":"BY-5554","address":"Neue Heimat 5 96450 Coburg","school_type":"Grundschule","fax":"09561 15028","phone":"09561 15028","website":null,"location":{"lat":"50.2452401","lon":"10.9726748"}},{"name":"Jean-Paul-Volksschule Coburg","id":"BY-5553","address":"Neustadter Straße 5 96450 Coburg","school_type":"Grundschule","fax":"09561 861623","phone":"09561 54420","website":null,"location":{"lat":"50.2716166","lon":"10.9671000472122"}},{"name":"Volksschule Coburg-Creidlitz","id":"BY-5550","address":"Florianweg 3 96450 Coburg","school_type":"Grundschule","fax":"09561 18246","phone":"09561 18246","website":null,"location":{"lat":"50.2317094","lon":"10.9801388646531"}},{"name":"Volksschule Coburg am Heimatring","id":"BY-5548","address":"Heimatring 58 96450 Coburg","school_type":"Grundschule","fax":"09561 8307070","phone":"09561 830700","website":null,"location":{"lat":"50.2682202","lon":"10.9449818"}},{"name":"Volksschule Weißenbrunn","id":"BY-5807","address":"Schulweg 9 96369 Weißenbrunn","school_type":"Grundschule","fax":"09261 54291","phone":"09261 4338","website":null},{"name":"Volksschule Nordhalben","id":"BY-5793","address":"Kronacher Straße 9 96365 Nordhalben","school_type":"Grundschule","fax":"09267 8160","phone":"09267 1428","website":null,"location":{"lat":"50.3737702","lon":"11.5121626"}},{"name":"Volksschule Rodachtal in Unterrodach","id":"BY-5805","address":"Schulweg 3 96364 Marktrodach Unterrodach","school_type":"Grundschule","fax":"09261 966365","phone":"09261 20051","website":null,"location":{"lat":"50.2525865","lon":"11.3843208"}},{"name":"Priv. Montessori-Grundschule Marktrodach d.Vereins Mont.-Fördergem.Kronach u.Umgeb.e.V.in Unterrodach","id":"BY-5568","address":"Schulweg 3 96364 Marktrodach","school_type":"Grundschule","website":null,"location":{"lat":"50.2525865","lon":"11.3843208"}},{"name":"Volksschule Tettau","id":"BY-5802","address":"Schulberg 5 96355 Tettau","school_type":"Grundschule","fax":"09269 9625","phone":"09269 9623","website":"http://www.kronachonline.de/~vst","location":{"lat":"50.4708731","lon":"11.2575688"}},{"name":"Volksschule Kronachtal in Wilhelmsthal","id":"BY-5808","address":"Grieser Str. 9 96352 Wilhelmsthal Steinberg","school_type":"Grundschule","fax":"09260 6787","phone":"09260 350","website":null,"location":{"lat":"50.28619","lon":"11.3625378"}},{"name":"Volksschule Stockheim","id":"BY-5801","address":"Frankenwaldstraße 4 96342 Stockheim","school_type":"Grundschule","fax":"09265 5044","phone":"09265 1227","website":null,"location":{"lat":"50.3137174","lon":"11.2792052"}},{"name":"Volksschule Johannisthal-Schmölz","id":"BY-5799","address":"Kirchenstr. 12 96328 Küps Johannisthal","school_type":"Grundschule","fax":"09264 7127","phone":"09264 7127","website":null,"location":{"lat":"50.2104265","lon":"11.2871898"}},{"name":"Volksschule Kronach-Neuses","id":"BY-5792","address":"Am Damm 10 96317 Kronach Neuses","school_type":"Grundschule","fax":"09261 63086","phone":"09261 2252","website":null,"location":{"lat":"50.2118623","lon":"11.3084443"}},{"name":"Lucas-Cranach-Volksschule Kronach","id":"BY-5787","address":"Turnstr. 7 96317 Kronach","school_type":"Grundschule","fax":"09261 61571","phone":"09261 61570","website":null,"location":{"lat":"50.2383983","lon":"11.3272007"}},{"name":"Volksschule Gehülz-Ziegelerden","id":"BY-5785","address":"Breitenloh 104 96317 Kronach Gehülz","school_type":"Grundschule","fax":"09261 61591","phone":"09261 61590","website":"http://home.nikocity.de/vs-gehuelz","location":{"lat":"50.2452193","lon":"11.2974922"}},{"name":"Volksschule Weidhausen b.Coburg","id":"BY-5704","address":"Pestalozzistr. 7 96279 Weidhausen","school_type":"Grundschule","fax":"09562 8636","phone":"09562 8229","website":null,"location":{"lat":"50.2048696","lon":"11.1463302"}},{"name":"Volksschule Marktzeuln","id":"BY-5857","address":"Schulstraße 8 96275 Marktzeuln","school_type":"Grundschule","fax":"09574 650154","phone":"09574 9193","website":"http://volksschule-marktzeuln.privat.t-online.de"},{"name":"Oskar-Schramm-Schule Itzgrund","id":"BY-5698","address":"Bodelstadt 24 96274 Itzgrund","school_type":"Grundschule","fax":"09533 921058","phone":"09533 290","website":"http://www.vsitzgrund.de.vu","location":{"lat":"50.1343301","lon":"10.8841757855002"}},{"name":"Volksschule Oberes Maintal OFr. Hochstadt a.Main","id":"BY-5852","address":"Schulstraße 4 96272 Hochstadt","school_type":"Grundschule","fax":"09574 651806","phone":"09574 1750","website":null,"location":{"lat":"50.1490454","lon":"11.1713345"}},{"name":"Volksschule Grub a.Forst","id":"BY-5686","address":"Schulstraße 25 96271 Grub","school_type":"Grundschule","fax":"09560 980960","phone":"09560 222","website":null,"location":{"lat":"50.2258301","lon":"11.0246703"}},{"name":"Volksschule Mitwitz","id":"BY-5791","address":"Thüringer Straße 14 96265 Mitwitz","school_type":"Grundschule","fax":"09266 9759","phone":"09266 9756","website":"http://www.vs-mitwitz.de"},{"name":"Volksschule Altenkunstadt","id":"BY-5846","address":"Baiersdorfer Str. 8 - 10 96264 Altenkunstadt","school_type":"Grundschule","fax":"09572 9968","phone":"09572 1404","website":null,"location":{"lat":"50.12400175","lon":"11.2508751152308"}},{"name":"Volksschule Weismain","id":"BY-5865","address":"Bgm.-Rothlauf-Str. 8 - 10 96260 Weismain","school_type":"Grundschule","fax":"09575 7186","phone":"09575 7441","website":null,"location":{"lat":"50.0835546","lon":"11.2435843"}},{"name":"Volksschule an der Göritze in Michelau","id":"BY-5862","address":"Erhard-Vogel-Str. 7 96247 Michelau","school_type":"Grundschule","fax":"09574 650729","phone":"09574 9436","website":null,"location":{"lat":"50.1651904","lon":"11.1482607"}},{"name":"Volksschule Lautergrund-Uetzing","id":"BY-5864","address":"Stublanger Straße 4 96231 Bad Staffelstein Uetzing","school_type":"Grundschule","fax":"09573 340283","phone":"09573 5380","website":null,"location":{"lat":"50.0854926","lon":"11.0678356"}},{"name":"Volksschule Unnersdorf-Grundfeld","id":"BY-5848","address":"Weinbergstr. 18 96231 Bad Staffelstein Unnersdorf","school_type":"Grundschule","fax":"09573 340103","phone":"09573 4459","website":null},{"name":"Volksschule Burgkunstadt-Mainroth","id":"BY-5849","address":"Pestalozzistraße 10 96224 Burgkunstadt","school_type":"Grundschule","fax":"09572 790265","phone":"09572 790263","website":null,"location":{"lat":"50.1391792","lon":"11.2543587"}},{"name":"Volksschule Lichtenfels in der Schney","id":"BY-5861","address":"Friedrich-Ebert-Str. 48 96215 Lichtenfels Schney","school_type":"Grundschule","fax":"09571 5545","phone":"09571 5545","website":null},{"name":"Volksschule Lichtenfels im Leuchsental","id":"BY-5860","address":"Büschlein 2 96215 Lichtenfels Roth","school_type":"Grundschule","fax":"09576 256","phone":"09576 256","website":null},{"name":"Volksschule Lichtenfels an der Kronacher Straße","id":"BY-5854","address":"Kronacher Straße 10 96215 Lichtenfels","school_type":"Grundschule","fax":"09571 70980","phone":"09571 70910","website":null,"location":{"lat":"50.149597","lon":"11.0772216"}},{"name":"Volksschule Aurachgrund in Walsdorf","id":"BY-5634","address":"Schulstraße 10 96194 Walsdorf","school_type":"Grundschule","fax":"09549 921102","phone":"09549 921100","website":null},{"name":"Volksschule Viereth-Trunstadt","id":"BY-5633","address":"Schaumbergstr. 18 96191 Viereth-Trunstadt","school_type":"Grundschule","fax":"09503 502929","phone":"09503 367","website":null,"location":{"lat":"49.92706365","lon":"10.7528350725386"}},{"name":"Volksschule Untermerzbach","id":"BY-7751","address":"Schulstr. 3 96190 Untermerzbach","school_type":"Grundschule","fax":"09533 372","phone":"09533 372","website":null,"location":{"lat":"50.1288008","lon":"10.8550001"}},{"name":"Volksschule Stadelhofen","id":"BY-5630","address":"Stadelhofen 44 96187 Stadelhofen","school_type":"Grundschule","fax":"09504 921578","phone":"09504 277","website":null},{"name":"Volksschule Schönbrunn-Ampferbach","id":"BY-5628","address":"Siedlungsstraße 22 96185 Schönbrunn","school_type":"Grundschule","fax":"09546 5920136","phone":"09546 1633","website":null,"location":{"lat":"49.85840325","lon":"10.685016870027"}},{"name":"Volksschule Pommersfelden","id":"BY-5621","address":"Schönbornstr. 4 96178 Pommersfelden","school_type":"Grundschule","fax":"09548 921036","phone":"09548 921035","website":"http://www.vs-pommersfelden.de","location":{"lat":"49.7613833","lon":"10.8196877"}},{"name":"Volksschule Königsfeld","id":"BY-5612","address":"Schulstr. 6 96167 Königsfeld","school_type":"Grundschule","fax":"09207 989091","phone":"09207 1255","website":"http://www.vs-koenigsfeld.de"},{"name":"Volksschule Kirchlauter","id":"BY-7738","address":"Haßbergstr. 4 96166 Kirchlauter","school_type":"Grundschule","fax":"09536 211","phone":"09536 292","website":"http://www.grundschule.kirchlauter.de","location":{"lat":"50.0445237","lon":"10.7177785"}},{"name":"Volksschule Kemmern","id":"BY-5611","address":"Schulstraße 2 96164 Kemmern","school_type":"Grundschule","fax":"09544 20663","phone":"09544 1505","website":null},{"name":"Volksschule Gundelsheim","id":"BY-5606","address":"Schulstraße 1 96163 Gundelsheim","school_type":"Grundschule","fax":"0951 4077659","phone":"0951 44504","website":null},{"name":"Volksschule Buttenheim","id":"BY-5601","address":"Schulstr. 16 96155 Buttenheim","school_type":"Grundschule","fax":"09545 7224","phone":"09545 8297","website":null},{"name":"Volksschule Burgwindheim","id":"BY-5600","address":"Kirchplatz 8 96154 Burgwindheim","school_type":"Grundschule","fax":"09551 925052","phone":"09551 242","website":null,"location":{"lat":"49.8274595","lon":"10.5957778"}},{"name":"Volksschule Burghaslach","id":"BY-6882","address":"Griffenberg 2 96152 Burghaslach","school_type":"Grundschule","fax":"09552 7022","phone":"09552 463","website":null},{"name":"Volksschule Hollfeld-Wonsees-Plankenfels","id":"BY-5675","address":"Am Graben 4 96142 Hollfeld","school_type":"Grundschule","fax":"09274 95421","phone":"09274 95420","website":null,"location":{"lat":"49.9387485","lon":"11.2892814"}},{"name":"Volksschule Maroldsweisach","id":"BY-7741","address":"Schulstr. 1 96126 Maroldsweisach","school_type":"Grundschule","fax":"09532 1062","phone":"09532 1635","website":null,"location":{"lat":"50.1966033","lon":"10.6573108"}},{"name":"Kilian-Volksschule Scheßlitz","id":"BY-5627","address":"Ostlandstraße 1 96110 Scheßlitz","school_type":"Grundschule","fax":"09542 921217","phone":"09542 921215","website":null},{"name":"Volksschule Ebern","id":"BY-7731","address":"Georg-Nadler-Str. 3 96106 Ebern","school_type":"Grundschule","fax":"09531 940134","phone":"09531 940133","website":null,"location":{"lat":"50.0941298","lon":"10.7971111"}},{"name":"Rupprecht-Volksschule Bamberg","id":"BY-5511","address":"Neuerbstr. 5 96052 Bamberg","school_type":"Grundschule","fax":"0951 93200217","phone":"0951 9320020","website":null,"location":{"lat":"49.9009287","lon":"10.9071952729157"}},{"name":"Kunigunden-Volksschule Bamberg","id":"BY-5507","address":"Seehofstr. 32 96052 Bamberg","school_type":"Grundschule","fax":"0951 9420708","phone":"0951 9420700","website":null,"location":{"lat":"49.9130337","lon":"10.920497951143"}},{"name":"Gangolf-Volksschule Bamberg","id":"BY-5502","address":"Luitpoldstr. 24 96052 Bamberg","school_type":"Grundschule","fax":"0951 92206117","phone":"0951 9220610","website":"http://www.gangolfschulebamberg.de","location":{"lat":"49.8975105","lon":"10.8945544"}},{"name":"Volksschule Bamberg - Wunderburg","id":"BY-5513","address":"Holzgartenstr. 2 96050 Bamberg","school_type":"Grundschule","fax":"0951 91202017","phone":"0951 9120200","website":"http://www.wunderburgschule-bamberg.de","location":{"lat":"49.8912825","lon":"10.9074826"}},{"name":"Priv. Montessori-Grundschule Bamberg des Vereins Montessori-Fördergemeinschaft Bamberg e.V.","id":"BY-5516","address":"Jakobsberg 9 96049 Bamberg","school_type":"Grundschule","fax":"0951 2975279","phone":"0951 2971427","website":"http://www.montessori-bamberg.de","location":{"lat":"49.8908848","lon":"10.8752587048413"}},{"name":"Dom-Volksschule Bamberg","id":"BY-5500","address":"Obere Karolinenstr. 4 a 96049 Bamberg","school_type":"Grundschule","fax":"0951 95200817","phone":"0951 95200811","website":null,"location":{"lat":"49.8915054","lon":"10.8814387"}},{"name":"Martin-Volksschule Bamberg","id":"BY-5509","address":"Hinterer Graben 1 96047 Bamberg","school_type":"Grundschule","fax":"0951 92210218","phone":"0951 9221020","website":"http://www.bnv-bamberg.de/home/ba3478/martweb/","location":{"lat":"49.8942821","lon":"10.8839792236917"}},{"name":"Hain-Volksschule Bamberg","id":"BY-5504","address":"Ottostr. 2 a 96047 Bamberg","school_type":"Grundschule","fax":"0951 92208118","phone":"0951 9220810","website":"http://www.hainschule-bamberg.de","location":{"lat":"49.8875828","lon":"10.8945204"}},{"name":"Volksschule Thiersheim","id":"BY-5887","address":"Schulstraße 19 95707 Thiersheim","school_type":"Grundschule","fax":"09233 7742250","phone":"09233 2221","website":null,"location":{"lat":"50.0734303","lon":"12.1287475"}},{"name":"Volksschule Schirnding-Hohenberg a.d.Eger","id":"BY-5882","address":"Arzberger Straße 5 95706 Schirnding","school_type":"Grundschule","fax":"09233 3196","phone":"09233 1614","website":"http://www.vsschiho.de","location":{"lat":"50.07967","lon":"12.2247603"}},{"name":"Volksschule Pechbrunn","id":"BY-4897","address":"Hauptstraße 12 95701 Pechbrunn","school_type":"Grundschule","fax":"09231 647561","phone":"09231 61172","website":"http://www.gemeinde-pechbrunn.de","location":{"lat":"49.969823","lon":"12.167206"}},{"name":"Volksschule Neualbenreuth","id":"BY-4894","address":"Schulstraße 5 95698 Neualbenreuth","school_type":"Grundschule","fax":"09638 330","phone":"09638 330","website":"http://schuleneualbenreuth.gmxhome.de","location":{"lat":"49.9806706","lon":"12.4409965"}},{"name":"Volksschule Mähring","id":"BY-4884","address":"Griesbach 50 95695 Mähring","school_type":"Grundschule","fax":"09639 912141","phone":"09639 322","website":null,"location":{"lat":"49.86841945","lon":"12.4786369906733"}},{"name":"Volksschule Konnersreuth","id":"BY-4888","address":"Hauptstraße 27 95692 Konnersreuth","school_type":"Grundschule","fax":"09632 2747","phone":"09632 2745","website":"http://www.schule-konnersreuth.de","location":{"lat":"50.0115032","lon":"12.2227711844365"}},{"name":"Volksschule Friedenfels","id":"BY-4882","address":"Kolpingplatz 2 95688 Friedenfels","school_type":"Grundschule","fax":"09683 642","phone":"09683 642","website":"http://www.gs-friedenfels.de","location":{"lat":"49.8828313","lon":"12.1032279"}},{"name":"Volksschule Fichtelberg-Mehlmeisel","id":"BY-5651","address":"Schulstr. 1 95686 Fichtelberg","school_type":"Grundschule","fax":"09272 96162","phone":"09272 96160","website":null,"location":{"lat":"50.0006083","lon":"11.8545444867089"}},{"name":"Volksschule Falkenberg","id":"BY-4881","address":"Schulstr. 21 95685 Falkenberg","school_type":"Grundschule","fax":"09637 929752","phone":"09637 485","website":null,"location":{"lat":"49.8577435","lon":"12.2258699"}},{"name":"Volksschule Wiesau","id":"BY-4909","address":"Schulstraße 6 95676 Wiesau","school_type":"Grundschule","fax":"09634 922125","phone":"09634 922120","website":"http://www.grundschule-wiesau.de"},{"name":"Volksschule Bärnau","id":"BY-4878","address":"Schulstraße 4 95671 Bärnau","school_type":"Grundschule","fax":"09635 91192","phone":"09635 91191","website":null,"location":{"lat":"49.8081267","lon":"12.4380124"}},{"name":"Maximilian-von-Bauernfeind-Volksschule Arzberg","id":"BY-5871","address":"Friedhofstr. 13 95659 Arzberg","school_type":"Grundschule","fax":"09233 773939","phone":"09233 77390","website":"http://www.schule.arzberg.org","location":{"lat":"50.0588692","lon":"12.1875991"}},{"name":"Volksschule Waldsassen","id":"BY-4907","address":"Schulstraße 1 95652 Waldsassen","school_type":"Grundschule","fax":"09632 920850","phone":"09632 92080","website":null},{"name":"Marien-Volksschule Tirschenreuth","id":"BY-4903","address":"Lengenfelder Weg 4 95643 Tirschenreuth","school_type":"Grundschule","fax":"09631 704150","phone":"09631 70410","website":"http://www.gstirschenreuth.de","location":{"lat":"49.8748509","lon":"12.3370718840476"}},{"name":"Volksschule Wunsiedel II","id":"BY-5891","address":"Egerstraße 64 95632 Wunsiedel","school_type":"Grundschule","fax":"09232 70370","phone":"09232 9180420","website":null,"location":{"lat":"50.040414","lon":"12.0118993"}},{"name":"Volksschule Marktredwitz","id":"BY-5879","address":"Bauerstraße 4 - 6 95615 Marktredwitz","school_type":"Grundschule","fax":"09231 4056","phone":"09231 501256","website":null,"location":{"lat":"50.0031741","lon":"12.0858472"}},{"name":"Volksschule Brand b.Marktredwitz","id":"BY-5873","address":"Fridauer Str. 36 95615 Marktredwitz Brand","school_type":"Grundschule","fax":"09231 667980","phone":"09231 3905","website":null,"location":{"lat":"50.0158993","lon":"12.144615"}},{"name":"Volksschule Schlammersdorf","id":"BY-4754","address":"Schulstr. 5 95519 Schlammersdorf","school_type":"Grundschule","fax":"09205 242","phone":"09205 242","website":null,"location":{"lat":"49.801032","lon":"11.732929"}},{"name":"Volksschule Mistelbach","id":"BY-5659","address":"Schulstraße 1 95511 Mistelbach","school_type":"Grundschule","fax":"09201 309","phone":"09201 309","website":"http://www.vs-mistelbach.de"},{"name":"Volksschule Marktschorgast","id":"BY-5830","address":"Bahnhofstraße 9 95509 Marktschorgast","school_type":"Grundschule","fax":"09227 943050","phone":"09227 5100","website":null,"location":{"lat":"50.09299765","lon":"11.6545953466056"}},{"name":"Volksschule Kulmain","id":"BY-4890","address":"Schulplatz 1 95508 Kulmain","school_type":"Grundschule","fax":"09642 91245","phone":"09642 91243","website":null},{"name":"Volksschule Immenreuth","id":"BY-4885","address":"Kemnather Str. 42 95505 Immenreuth","school_type":"Grundschule","fax":"09642 921630","phone":"09642 921622","website":null,"location":{"lat":"49.9089019","lon":"11.8663449"}},{"name":"Volksschule Heinersreuth-Altenplos","id":"BY-5643","address":"Geschwister-Scholl-Straße 28 95500 Heinersreuth","school_type":"Grundschule","fax":"0921 74130325","phone":"0921 7413030","website":"http://www.volksschule-heinersreuth.de.vu","location":{"lat":"49.9630965","lon":"11.5287709525943"}},{"name":"Volksschule Bischofsgrün","id":"BY-5647","address":"Hauptstraße 34 95493 Bischofsgrün","school_type":"Grundschule","fax":"09276 515","phone":"09276 515","website":null,"location":{"lat":"50.0510346","lon":"11.7979982347938"}},{"name":"Volksschule Ahorntal","id":"BY-5642","address":"Kirchahorn 44 95491 Ahorntal Kirchahorn","school_type":"Grundschule","fax":"09202 972753","phone":"09202 445","website":"http://www.vs-ahorntal.de","location":{"lat":"49.833047","lon":"11.4003798"}},{"name":"Volksschule Mistelgau-Glashütten","id":"BY-5660","address":"Schulstr. 18 95490 Mistelgau","school_type":"Grundschule","fax":"09279 346","phone":"09279 346","website":null,"location":{"lat":"49.9120151","lon":"11.466061"}},{"name":"Volksschule Warmensteinach","id":"BY-5673","address":"Bahnhofstraße 96 95485 Warmensteinach","school_type":"Grundschule","fax":"09277 272","phone":"09277 272","website":"http://volksschule.warmensteinach.here.de","location":{"lat":"49.99888465","lon":"11.7803735358076"}},{"name":"Volksschule Kirchenpingarten","id":"BY-5657","address":"Schulstr. 4 95466 Kirchenpingarten","school_type":"Grundschule","fax":"09278 7709912","phone":"09278 369","website":null,"location":{"lat":"49.9209909","lon":"11.7827159"}},{"name":"Volksschule Bayreuth-St.-Johannis","id":"BY-5537","address":"Ziegelleite 15 95448 Bayreuth","school_type":"Grundschule","fax":"0921 7998015","phone":"0921 7998010","website":null,"location":{"lat":"49.94575225","lon":"11.6153789"}},{"name":"Volksschule Bayreuth-St.-Georgen","id":"BY-5536","address":"Riedelsberger Weg 20 95448 Bayreuth","school_type":"Grundschule","fax":"0921 7896417","phone":"0921 7896410","website":null,"location":{"lat":"49.95178445","lon":"11.5956958949306"}},{"name":"Volksschule Bayreuth-Laineck","id":"BY-5531","address":"Goldkronacher Str. 9 95448 Bayreuth","school_type":"Grundschule","fax":"0921 9800288","phone":"0921 99135","website":null,"location":{"lat":"49.96062545","lon":"11.620463999931"}},{"name":"Jean-Paul-Volksschule Bayreuth","id":"BY-5529","address":"Königsallee 19 95448 Bayreuth","school_type":"Grundschule","fax":"0921 7998915","phone":"0921 799890","website":"http://www.tmt.de/jean-paul-schule","location":{"lat":"49.9405521","lon":"11.5936855007569"}},{"name":"Volksschule Bayreuth-Lerchenbühl","id":"BY-5532","address":"Lerchenbühl 11 95447 Bayreuth","school_type":"Grundschule","fax":"0921 7591515","phone":"0921 7591510","website":null,"location":{"lat":"49.9261536","lon":"11.5591393949252"}},{"name":"Volksschule Bayreuth-Herzoghöhe","id":"BY-5528","address":"Preuschwitzer Str. 34 95445 Bayreuth","school_type":"Grundschule","fax":"0921 746215","phone":"0921 74620","website":"http://home.bnbt.de/herzoghoehe","location":{"lat":"49.9462441","lon":"11.5492481"}},{"name":"Luitpold-Volksschule Bayreuth","id":"BY-5533","address":"Oswald-Merz-Str. 9 95444 Bayreuth","school_type":"Grundschule","fax":"0921 7591615","phone":"0921 759160","website":"http://www.luitpoldschule-bayreuth.de","location":{"lat":"49.94122295","lon":"11.5663092933864"}},{"name":"Graser-Volksschule Bayreuth","id":"BY-5526","address":"Schulstr. 4 95444 Bayreuth","school_type":"Grundschule","fax":"0921 251563","phone":"0921 251499","website":null,"location":{"lat":"49.9460907","lon":"11.574759"}},